[
  {
    "_id": 0,
    "Lat": 42.72362039,
    "Long": 12.26632211,
    "Area": "ABR",
    "Area_Name": "Abruzzo",
    "Hospital_Unit": "PRESIDIO OSPEDALIERO SS ANNUNZIATA",
    "City": "CHIETI",
    "District": "CHIETI",
    "NUTS1_Code": "ITF",
    "NUTS2_Code": "ITF1",
    "County_Code": 13
  },
  {
    "_id": 1,
    "Lat": 42.58158408,
    "Long": 8.26283616,
    "Area": "ABR",
    "Area_Name": "Abruzzo",
    "Hospital_Unit": "PRESIDIO OSPEDALIERO RENZETTI",
    "City": "LANCIANO",
    "District": "CHIETI",
    "NUTS1_Code": "ITF",
    "NUTS2_Code": "ITF1",
    "County_Code": 13
  },
  {
    "_id": 2,
    "Lat": 43.14283809,
    "Long": 6.48099741,
    "Area": "ABR",
    "Area_Name": "Abruzzo",
    "Hospital_Unit": "PRESIDIO OSPEDALIERO SAN PIO",
    "City": "VASTO",
    "District": "CHIETI",
    "NUTS1_Code": "ITF",
    "NUTS2_Code": "ITF1",
    "County_Code": 13
  },
  {
    "_id": 3,
    "Lat": 42.44137286,
    "Long": 11.72436072,
    "Area": "ABR",
    "Area_Name": "Abruzzo",
    "Hospital_Unit": "P.O. SS. FILIPPO E NICOLA",
    "City": "AVEZZANO",
    "District": "L'AQUILA",
    "NUTS1_Code": "ITF",
    "NUTS2_Code": "ITF1",
    "County_Code": 13
  },
  {
    "_id": 4,
    "Lat": 35.0233821,
    "Long": 13.02407137,
    "Area": "ABR",
    "Area_Name": "Abruzzo",
    "Hospital_Unit": "PRESIDIO OSPEDALIERO SAN SALVATORE",
    "City": "L'AQUILA",
    "District": "L'AQUILA",
    "NUTS1_Code": "ITF",
    "NUTS2_Code": "ITF1",
    "County_Code": 13
  },
  {
    "_id": 5,
    "Lat": 43.39991785,
    "Long": 11.23464682,
    "Area": "ABR",
    "Area_Name": "Abruzzo",
    "Hospital_Unit": "PRESIDIO OSPEDALIERO SPIRITO SANTO",
    "City": "PESCARA",
    "District": "PESCARA",
    "NUTS1_Code": "ITF",
    "NUTS2_Code": "ITF1",
    "County_Code": 13
  },
  {
    "_id": 6,
    "Lat": 42.93789431,
    "Long": 10.10754061,
    "Area": "ABR",
    "Area_Name": "Abruzzo",
    "Hospital_Unit": "PRESIDIO OSPEDALIERO MAZZINI \n",
    "City": "TERAMO",
    "District": "TERAMO",
    "NUTS1_Code": "ITF",
    "NUTS2_Code": "ITF1",
    "County_Code": 13
  },
  {
    "_id": 7,
    "Lat": 41.34676713,
    "Long": 12.45432356,
    "Area": "BAS",
    "Area_Name": "Basilicata",
    "Hospital_Unit": "A.S.M. P.O. MADONNA DELLE GRAZIE",
    "City": "MATERA",
    "District": "MATERA",
    "NUTS1_Code": "ITF",
    "NUTS2_Code": "ITF5",
    "County_Code": 17
  },
  {
    "_id": 8,
    "Lat": 39.35078375,
    "Long": 6.96436834,
    "Area": "BAS",
    "Area_Name": "Basilicata",
    "Hospital_Unit": "CHIAROMONTE-ASP DI POTENZA",
    "City": "CHIAROMONTE",
    "District": "POTENZA",
    "NUTS1_Code": "ITF",
    "NUTS2_Code": "ITF5",
    "County_Code": 17
  },
  {
    "_id": 9,
    "Lat": 41.11834546,
    "Long": 13.48284667,
    "Area": "BAS",
    "Area_Name": "Basilicata",
    "Hospital_Unit": "AOR SAN CARLO",
    "City": "POTENZA",
    "District": "POTENZA",
    "NUTS1_Code": "ITF",
    "NUTS2_Code": "ITF5",
    "County_Code": 17
  },
  {
    "_id": 10,
    "Lat": 41.49264328,
    "Long": 9.62852653,
    "Area": "BAS",
    "Area_Name": "Basilicata",
    "Hospital_Unit": "IRCCS CROB",
    "City": "RIONERO IN VULTURE",
    "District": "POTENZA",
    "NUTS1_Code": "ITF",
    "NUTS2_Code": "ITF5",
    "County_Code": 17
  },
  {
    "_id": 11,
    "Lat": 41.08419529,
    "Long": 9.78990704,
    "Area": "BAS",
    "Area_Name": "Basilicata",
    "Hospital_Unit": "VENOSA-ASP DI POTENZA",
    "City": "VENOSA",
    "District": "POTENZA",
    "NUTS1_Code": "ITF",
    "NUTS2_Code": "ITF5",
    "County_Code": 17
  },
  {
    "_id": 12,
    "Lat": 39.34174939,
    "Long": 11.38511105,
    "Area": "CAL",
    "Area_Name": "Calabria",
    "Hospital_Unit": "MATER DOMINI",
    "City": "CATANZARO",
    "District": "CATANZARO",
    "NUTS1_Code": "ITF",
    "NUTS2_Code": "ITF6",
    "County_Code": 18
  },
  {
    "_id": 13,
    "Lat": 39.53688436,
    "Long": 13.31409204,
    "Area": "CAL",
    "Area_Name": "Calabria",
    "Hospital_Unit": "PUGLIESE -CIACCIO",
    "City": "CATANZARO",
    "District": "CATANZARO",
    "NUTS1_Code": "ITF",
    "NUTS2_Code": "ITF6",
    "County_Code": 18
  },
  {
    "_id": 14,
    "Lat": 39.32555572,
    "Long": 13.47000466,
    "Area": "CAL",
    "Area_Name": "Calabria",
    "Hospital_Unit": "AO COSENZA\u00a0 - AZIENDA OSPEDALIERA DI COSENZA \"SS. ANNUNZIATA\"",
    "City": "COSENZA",
    "District": "COSENZA",
    "NUTS1_Code": "ITF",
    "NUTS2_Code": "ITF6",
    "County_Code": 18
  },
  {
    "_id": 15,
    "Lat": 39.64563035,
    "Long": 7.00512335,
    "Area": "CAL",
    "Area_Name": "Calabria",
    "Hospital_Unit": "OSPEDALE SPOKE CROTONE",
    "City": "CROTONE",
    "District": "CROTONE",
    "NUTS1_Code": "ITF",
    "NUTS2_Code": "ITF6",
    "County_Code": 18
  },
  {
    "_id": 16,
    "Lat": 35.98564047,
    "Long": 10.56873871,
    "Area": "CAL",
    "Area_Name": "Calabria",
    "Hospital_Unit": "GOM",
    "City": "REGGIO CALABRIA",
    "District": "REGGIO CALABRIA",
    "NUTS1_Code": "ITF",
    "NUTS2_Code": "ITF6",
    "County_Code": 18
  },
  {
    "_id": 17,
    "Lat": 39.2707903,
    "Long": 7.79951521,
    "Area": "CAL",
    "Area_Name": "Calabria",
    "Hospital_Unit": "OSPEDALE SPOKE VIBO VALENTIA",
    "City": "VIBO VALENTIA",
    "District": "VIBO VALENTIA",
    "NUTS1_Code": "ITF",
    "NUTS2_Code": "ITF6",
    "County_Code": 18
  },
  {
    "_id": 18,
    "Lat": 41.58750198,
    "Long": 8.75490135,
    "Area": "CAM",
    "Area_Name": "Campania",
    "Hospital_Unit": "ASL AV P.O. S.OTTONE FRANGIPANE",
    "City": "ARIANO IRPINO",
    "District": "AVELLINO",
    "NUTS1_Code": "ITF",
    "NUTS2_Code": "ITF3",
    "County_Code": 15
  },
  {
    "_id": 19,
    "Lat": 41.14944895,
    "Long": 12.22414072,
    "Area": "CAM",
    "Area_Name": "Campania",
    "Hospital_Unit": "A.O.R.N. MOSCATI",
    "City": "AVELLINO",
    "District": "AVELLINO",
    "NUTS1_Code": "ITF",
    "NUTS2_Code": "ITF3",
    "County_Code": 15
  },
  {
    "_id": 20,
    "Lat": 41.31354484,
    "Long": 12.91687437,
    "Area": "CAM",
    "Area_Name": "Campania",
    "Hospital_Unit": "A.O. SAN PIO",
    "City": "BENEVENTO",
    "District": "BENEVENTO",
    "NUTS1_Code": "ITF",
    "NUTS2_Code": "ITF3",
    "County_Code": 15
  },
  {
    "_id": 21,
    "Lat": 41.86369071,
    "Long": 7.23911825,
    "Area": "CAM",
    "Area_Name": "Campania",
    "Hospital_Unit": "ASL CE PO MOSCATI",
    "City": "AVERSA",
    "District": "CASERTA",
    "NUTS1_Code": "ITF",
    "NUTS2_Code": "ITF3",
    "County_Code": 15
  },
  {
    "_id": 22,
    "Lat": 41.75051811,
    "Long": 12.49392055,
    "Area": "CAM",
    "Area_Name": "Campania",
    "Hospital_Unit": "A.O.R.N. SANT'ANNA E SAN SEBASTIANO",
    "City": "CASERTA",
    "District": "CASERTA",
    "NUTS1_Code": "ITF",
    "NUTS2_Code": "ITF3",
    "County_Code": 15
  },
  {
    "_id": 23,
    "Lat": 41.29553847,
    "Long": 10.77687961,
    "Area": "CAM",
    "Area_Name": "Campania",
    "Hospital_Unit": "ASL CE PO MADDALONI",
    "City": "MADDALONI",
    "District": "CASERTA",
    "NUTS1_Code": "ITF",
    "NUTS2_Code": "ITF3",
    "County_Code": 15
  },
  {
    "_id": 24,
    "Lat": 42.02635451,
    "Long": 13.07873177,
    "Area": "CAM",
    "Area_Name": "Campania",
    "Hospital_Unit": "ASL CE PO MARCIANISE",
    "City": "MARCIANISE",
    "District": "CASERTA",
    "NUTS1_Code": "ITF",
    "NUTS2_Code": "ITF3",
    "County_Code": 15
  },
  {
    "_id": 25,
    "Lat": 36.34504864,
    "Long": 10.26655159,
    "Area": "CAM",
    "Area_Name": "Campania",
    "Hospital_Unit": "ASL CE PO PIEDIMONTE MATESE",
    "City": "PIEDIMONTE MATESE",
    "District": "CASERTA",
    "NUTS1_Code": "ITF",
    "NUTS2_Code": "ITF3",
    "County_Code": 15
  },
  {
    "_id": 26,
    "Lat": 41.73732407,
    "Long": 13.95340066,
    "Area": "CAM",
    "Area_Name": "Campania",
    "Hospital_Unit": "ASL CE PO SESSA AURUNCA",
    "City": "SESSA AURUNCA",
    "District": "CASERTA",
    "NUTS1_Code": "ITF",
    "NUTS2_Code": "ITF3",
    "County_Code": 15
  },
  {
    "_id": 27,
    "Lat": 39.42248725,
    "Long": 6.43155969,
    "Area": "CAM",
    "Area_Name": "Campania",
    "Hospital_Unit": "ASL NAPOLI 3 SUD  PO SAN LEONARDO",
    "City": "CASTELLAMARE DI STABIA",
    "District": "NAPOLI",
    "NUTS1_Code": "ITF",
    "NUTS2_Code": "ITF3",
    "County_Code": 15
  },
  {
    "_id": 28,
    "Lat": 41.88348145,
    "Long": 13.93155129,
    "Area": "CAM",
    "Area_Name": "Campania",
    "Hospital_Unit": "ASL NAPOLI 2 NORD PO  SAN GIOVANNI DI DIO",
    "City": "FRATTAMAGGIORE",
    "District": "NAPOLI",
    "NUTS1_Code": "ITF",
    "NUTS2_Code": "ITF3",
    "County_Code": 15
  },
  {
    "_id": 29,
    "Lat": 41.61007697,
    "Long": 12.65554965,
    "Area": "CAM",
    "Area_Name": "Campania",
    "Hospital_Unit": "ASL NAPOLI 2 NORD PO  SAN GIULIANO",
    "City": "GIUGLIANO IN CAMPANIA",
    "District": "NAPOLI",
    "NUTS1_Code": "ITF",
    "NUTS2_Code": "ITF3",
    "County_Code": 15
  },
  {
    "_id": 30,
    "Lat": 40.90323525,
    "Long": 7.89536565,
    "Area": "CAM",
    "Area_Name": "Campania",
    "Hospital_Unit": "ASL NAPOLI 2 NORD PO A.M. RIZZOLI",
    "City": "ISCHIA",
    "District": "NAPOLI",
    "NUTS1_Code": "ITF",
    "NUTS2_Code": "ITF3",
    "County_Code": 15
  },
  {
    "_id": 31,
    "Lat": 44.84690842,
    "Long": 9.67319676,
    "Area": "CAM",
    "Area_Name": "Campania",
    "Hospital_Unit": "A.O. DEI COLLI - PO COTUGNO",
    "City": "NAPOLI",
    "District": "NAPOLI",
    "NUTS1_Code": "ITF",
    "NUTS2_Code": "ITF3",
    "County_Code": 15
  },
  {
    "_id": 32,
    "Lat": 42.34013782,
    "Long": 11.03623968,
    "Area": "CAM",
    "Area_Name": "Campania",
    "Hospital_Unit": "A.O. SANTOBONO PAUSILIPON",
    "City": "NAPOLI",
    "District": "NAPOLI",
    "NUTS1_Code": "ITF",
    "NUTS2_Code": "ITF3",
    "County_Code": 15
  },
  {
    "_id": 33,
    "Lat": 35.58288699,
    "Long": 6.74703045,
    "Area": "CAM",
    "Area_Name": "Campania",
    "Hospital_Unit": "A.O.R.N. CARDARELLI",
    "City": "NAPOLI",
    "District": "NAPOLI",
    "NUTS1_Code": "ITF",
    "NUTS2_Code": "ITF3",
    "County_Code": 15
  },
  {
    "_id": 34,
    "Lat": 42.04159526,
    "Long": 13.52401798,
    "Area": "CAM",
    "Area_Name": "Campania",
    "Hospital_Unit": "A.O.U. FEDERICO II",
    "City": "NAPOLI",
    "District": "NAPOLI",
    "NUTS1_Code": "ITF",
    "NUTS2_Code": "ITF3",
    "County_Code": 15
  },
  {
    "_id": 35,
    "Lat": 35.80029562,
    "Long": 9.84070907,
    "Area": "CAM",
    "Area_Name": "Campania",
    "Hospital_Unit": "A.O.U. VANVITELLI",
    "City": "NAPOLI",
    "District": "NAPOLI",
    "NUTS1_Code": "ITF",
    "NUTS2_Code": "ITF3",
    "County_Code": 15
  },
  {
    "_id": 36,
    "Lat": 35.38955021,
    "Long": 10.71205904,
    "Area": "CAM",
    "Area_Name": "Campania",
    "Hospital_Unit": "ASL NA 1 CENTRO PO DEL MARE",
    "City": "NAPOLI",
    "District": "NAPOLI",
    "NUTS1_Code": "ITF",
    "NUTS2_Code": "ITF3",
    "County_Code": 15
  },
  {
    "_id": 37,
    "Lat": 41.20830793,
    "Long": 6.0355098,
    "Area": "CAM",
    "Area_Name": "Campania",
    "Hospital_Unit": "ASL NA1 CENTRO PO SAN PAOLO",
    "City": "NAPOLI",
    "District": "NAPOLI",
    "NUTS1_Code": "ITF",
    "NUTS2_Code": "ITF3",
    "County_Code": 15
  },
  {
    "_id": 38,
    "Lat": 39.16521037,
    "Long": 7.94409017,
    "Area": "CAM",
    "Area_Name": "Campania",
    "Hospital_Unit": "ASL NAPOLI 3 SUD  PO NOLA",
    "City": "NOLA",
    "District": "NAPOLI",
    "NUTS1_Code": "ITF",
    "NUTS2_Code": "ITF3",
    "County_Code": 15
  },
  {
    "_id": 39,
    "Lat": 41.26616918,
    "Long": 9.59701266,
    "Area": "CAM",
    "Area_Name": "Campania",
    "Hospital_Unit": "ASL NAPOLI 2 NORD P.O SANTA MARIA DELLE  GRAZIE",
    "City": "POZZUOLI",
    "District": "NAPOLI",
    "NUTS1_Code": "ITF",
    "NUTS2_Code": "ITF3",
    "County_Code": 15
  },
  {
    "_id": 40,
    "Lat": 41.26357556,
    "Long": 10.24728514,
    "Area": "CAM",
    "Area_Name": "Campania",
    "Hospital_Unit": "ASL SA PO SANTA MARIA DELLA SPERANZA",
    "City": "BATTIPAGLIA",
    "District": "SALERNO",
    "NUTS1_Code": "ITF",
    "NUTS2_Code": "ITF3",
    "County_Code": 15
  },
  {
    "_id": 41,
    "Lat": 41.18197117,
    "Long": 11.72763513,
    "Area": "CAM",
    "Area_Name": "Campania",
    "Hospital_Unit": "ASL SA PO UMBERTO I",
    "City": "NOCERA INFERIORE",
    "District": "SALERNO",
    "NUTS1_Code": "ITF",
    "NUTS2_Code": "ITF3",
    "County_Code": 15
  },
  {
    "_id": 42,
    "Lat": 41.23821445,
    "Long": 9.12439881,
    "Area": "CAM",
    "Area_Name": "Campania",
    "Hospital_Unit": "ASL SA PO LUIGI CURTO",
    "City": "POLLA",
    "District": "SALERNO",
    "NUTS1_Code": "ITF",
    "NUTS2_Code": "ITF3",
    "County_Code": 15
  },
  {
    "_id": 43,
    "Lat": 41.15967215,
    "Long": 8.77071803,
    "Area": "CAM",
    "Area_Name": "Campania",
    "Hospital_Unit": "A.O.U. RUGGI D'ARAGONA",
    "City": "SALERNO",
    "District": "SALERNO",
    "NUTS1_Code": "ITF",
    "NUTS2_Code": "ITF3",
    "County_Code": 15
  },
  {
    "_id": 44,
    "Lat": 40.51053197,
    "Long": 10.70302633,
    "Area": "CAM",
    "Area_Name": "Campania",
    "Hospital_Unit": "ASL SA PO SAN LUCA",
    "City": "VALLO DELLA LUCANIA",
    "District": "SALERNO",
    "NUTS1_Code": "ITF",
    "NUTS2_Code": "ITF3",
    "County_Code": 15
  },
  {
    "_id": 45,
    "Lat": 44.73616694,
    "Long": 9.7835594,
    "Area": "EMR",
    "Area_Name": "Emilia-Romagna",
    "Hospital_Unit": "AOSP S.ORSOLA MALPIGHI",
    "City": "BOLOGNA",
    "District": "BOLOGNA",
    "NUTS1_Code": "ITH",
    "NUTS2_Code": "ITH5",
    "County_Code": 8
  },
  {
    "_id": 46,
    "Lat": 45.00510815,
    "Long": 7.14799283,
    "Area": "EMR",
    "Area_Name": "Emilia-Romagna",
    "Hospital_Unit": "AUSL BOLOGNA OSP.LE BELLARIA",
    "City": "BOLOGNA",
    "District": "BOLOGNA",
    "NUTS1_Code": "ITH",
    "NUTS2_Code": "ITH5",
    "County_Code": 8
  },
  {
    "_id": 47,
    "Lat": 45.15161906,
    "Long": 6.20201741,
    "Area": "EMR",
    "Area_Name": "Emilia-Romagna",
    "Hospital_Unit": "IRCCS ISTITUTO ORTOPEDICO RIZZOLI",
    "City": "BOLOGNA",
    "District": "BOLOGNA",
    "NUTS1_Code": "ITH",
    "NUTS2_Code": "ITH5",
    "County_Code": 8
  },
  {
    "_id": 48,
    "Lat": 45.10748814,
    "Long": 12.38375657,
    "Area": "EMR",
    "Area_Name": "Emilia-Romagna",
    "Hospital_Unit": "AUSL IMOLA",
    "City": "IMOLA",
    "District": "BOLOGNA",
    "NUTS1_Code": "ITH",
    "NUTS2_Code": "ITH5",
    "County_Code": 8
  },
  {
    "_id": 49,
    "Lat": 41.47932826,
    "Long": 8.00487221,
    "Area": "EMR",
    "Area_Name": "Emilia-Romagna",
    "Hospital_Unit": "AOU FERRARA",
    "City": "CONA",
    "District": "FERRARA",
    "NUTS1_Code": "ITH",
    "NUTS2_Code": "ITH5",
    "County_Code": 8
  },
  {
    "_id": 50,
    "Lat": 45.20782315,
    "Long": 10.56177113,
    "Area": "EMR",
    "Area_Name": "Emilia-Romagna",
    "Hospital_Unit": "AUSL FERRARA \nOSPEDALE DEL DELTA \u00a0",
    "City": "LAGOSANTO",
    "District": "FERRARA",
    "NUTS1_Code": "ITH",
    "NUTS2_Code": "ITH5",
    "County_Code": 8
  },
  {
    "_id": 51,
    "Lat": 44.8330348,
    "Long": 6.34179461,
    "Area": "EMR",
    "Area_Name": "Emilia-Romagna",
    "Hospital_Unit": "CENTRO SERVIZI PIEVESISTINA",
    "City": "PIEVESESTINA",
    "District": "FORL\u00cc-CESENA",
    "NUTS1_Code": "ITH",
    "NUTS2_Code": "ITH5",
    "County_Code": 8
  },
  {
    "_id": 52,
    "Lat": 44.80200444,
    "Long": 9.7098147,
    "Area": "EMR",
    "Area_Name": "Emilia-Romagna",
    "Hospital_Unit": "AUSL/AOU MODENA",
    "City": "MODENA",
    "District": "MODENA",
    "NUTS1_Code": "ITH",
    "NUTS2_Code": "ITH5",
    "County_Code": 8
  },
  {
    "_id": 53,
    "Lat": 45.17634127,
    "Long": 8.03196459,
    "Area": "EMR",
    "Area_Name": "Emilia-Romagna",
    "Hospital_Unit": "AUSL/AOU PARMA OSP.LE MAGGIORE",
    "City": "PARMA",
    "District": "PARMA",
    "NUTS1_Code": "ITH",
    "NUTS2_Code": "ITH5",
    "County_Code": 8
  },
  {
    "_id": 54,
    "Lat": 45.34147878,
    "Long": 9.70554026,
    "Area": "EMR",
    "Area_Name": "Emilia-Romagna",
    "Hospital_Unit": "OSP.LE GUGLIELMO DA SALICETO",
    "City": "PIACENZA",
    "District": "PIACENZA",
    "NUTS1_Code": "ITH",
    "NUTS2_Code": "ITH5",
    "County_Code": 8
  },
  {
    "_id": 55,
    "Lat": 44.58475934,
    "Long": 9.05772674,
    "Area": "EMR",
    "Area_Name": "Emilia-Romagna",
    "Hospital_Unit": "OSPEDALE RAVENNA",
    "City": "RAVENNA",
    "District": "RAVENNA",
    "NUTS1_Code": "ITH",
    "NUTS2_Code": "ITH5",
    "County_Code": 8
  },
  {
    "_id": 56,
    "Lat": 45.63479414,
    "Long": 11.09769171,
    "Area": "EMR",
    "Area_Name": "Emilia-Romagna",
    "Hospital_Unit": "IRCCS SANTA MARIA NUOVA",
    "City": "REGGIO EMILIA",
    "District": "REGGIO EMILIA",
    "NUTS1_Code": "ITH",
    "NUTS2_Code": "ITH5",
    "County_Code": 8
  },
  {
    "_id": 57,
    "Lat": 44.87778726,
    "Long": 12.22840282,
    "Area": "EMR",
    "Area_Name": "Emilia-Romagna",
    "Hospital_Unit": "OSPEDALE RIMINI",
    "City": "RIMINI",
    "District": "RIMINI",
    "NUTS1_Code": "ITH",
    "NUTS2_Code": "ITH5",
    "County_Code": 8
  },
  {
    "_id": 58,
    "Lat": 39.748579,
    "Long": 10.67327513,
    "Area": "FVG",
    "Area_Name": "Friuli-Venezia Giulia",
    "Hospital_Unit": "MONFALCONE",
    "City": "MONFALCONE",
    "District": "GORIZIA",
    "NUTS1_Code": "ITH",
    "NUTS2_Code": "ITH4",
    "County_Code": 6
  },
  {
    "_id": 59,
    "Lat": 46.62583415,
    "Long": 13.88130559,
    "Area": "FVG",
    "Area_Name": "Friuli-Venezia Giulia",
    "Hospital_Unit": "SANTA MARIA DEGLI ANGELI",
    "City": "PORDENONE",
    "District": "PORDENONE",
    "NUTS1_Code": "ITH",
    "NUTS2_Code": "ITH4",
    "County_Code": 6
  },
  {
    "_id": 60,
    "Lat": 45.68645256,
    "Long": 13.25333566,
    "Area": "FVG",
    "Area_Name": "Friuli-Venezia Giulia",
    "Hospital_Unit": "CATTINARA",
    "City": "TRIESTE",
    "District": "TRIESTE",
    "NUTS1_Code": "ITH",
    "NUTS2_Code": "ITH4",
    "County_Code": 6
  },
  {
    "_id": 61,
    "Lat": 46.57804681,
    "Long": 9.80364388,
    "Area": "FVG",
    "Area_Name": "Friuli-Venezia Giulia",
    "Hospital_Unit": "TOLMEZZO",
    "City": "TOLMEZZO",
    "District": "UDINE",
    "NUTS1_Code": "ITH",
    "NUTS2_Code": "ITH4",
    "County_Code": 6
  },
  {
    "_id": 62,
    "Lat": 46.89494658,
    "Long": 13.55043309,
    "Area": "FVG",
    "Area_Name": "Friuli-Venezia Giulia",
    "Hospital_Unit": "SANTA MARIA DELLA MISERICORDIA",
    "City": "UDINE",
    "District": "UDINE",
    "NUTS1_Code": "ITH",
    "NUTS2_Code": "ITH4",
    "County_Code": 6
  },
  {
    "_id": 63,
    "Lat": 41.91315333,
    "Long": 9.17689889,
    "Area": "LAZ",
    "Area_Name": "Lazio",
    "Hospital_Unit": "OSPEDALE SPAZIANI",
    "City": "FROSINONE",
    "District": "FROSINONE",
    "NUTS1_Code": "ITI",
    "NUTS2_Code": "ITI4",
    "County_Code": 12
  },
  {
    "_id": 64,
    "Lat": 41.75315432,
    "Long": 13.22546385,
    "Area": "LAZ",
    "Area_Name": "Lazio",
    "Hospital_Unit": "OSPEDALE SANTA MARIA GORETTI",
    "City": "LATINA",
    "District": "LATINA",
    "NUTS1_Code": "ITI",
    "NUTS2_Code": "ITI4",
    "County_Code": 12
  },
  {
    "_id": 65,
    "Lat": 42.55648071,
    "Long": 8.23592598,
    "Area": "LAZ",
    "Area_Name": "Lazio",
    "Hospital_Unit": "OSPEDALE SAN CAMILLO DE LELLIS",
    "City": "RIETI",
    "District": "RIETI",
    "NUTS1_Code": "ITI",
    "NUTS2_Code": "ITI4",
    "County_Code": 12
  },
  {
    "_id": 66,
    "Lat": 39.16555689,
    "Long": 8.60673751,
    "Area": "LAZ",
    "Area_Name": "Lazio",
    "Hospital_Unit": "AO SAN GIOVANNI ADDOLORATA",
    "City": "ROMA",
    "District": "RM",
    "NUTS1_Code": "ITI",
    "NUTS2_Code": "ITI4",
    "County_Code": 12
  },
  {
    "_id": 67,
    "Lat": 43.22810785,
    "Long": 11.21662208,
    "Area": "LAZ",
    "Area_Name": "Lazio",
    "Hospital_Unit": "FONDAZIONE POLICLINICO A. GEMELLI IRCCS",
    "City": "ROMA",
    "District": "RM",
    "NUTS1_Code": "ITI",
    "NUTS2_Code": "ITI4",
    "County_Code": 12
  },
  {
    "_id": 68,
    "Lat": 41.26709143,
    "Long": 6.3991296,
    "Area": "LAZ",
    "Area_Name": "Lazio",
    "Hospital_Unit": "POLICLINICO TOR VERGATA",
    "City": "ROMA",
    "District": "RM",
    "NUTS1_Code": "ITI",
    "NUTS2_Code": "ITI4",
    "County_Code": 12
  },
  {
    "_id": 69,
    "Lat": 41.54128793,
    "Long": 9.35041259,
    "Area": "LAZ",
    "Area_Name": "Lazio",
    "Hospital_Unit": "ASL RM6 OSPEDALE DEI CASTELLI",
    "City": "ARICCIA RM",
    "District": "ROMA",
    "NUTS1_Code": "ITI",
    "NUTS2_Code": "ITI4",
    "County_Code": 12
  },
  {
    "_id": 70,
    "Lat": 38.18454748,
    "Long": 12.04213332,
    "Area": "LAZ",
    "Area_Name": "Lazio",
    "Hospital_Unit": "ASL RM4 OSPEDALE SAN PAOLO",
    "City": "CIVITAVECCHIA - RM",
    "District": "ROMA",
    "NUTS1_Code": "ITI",
    "NUTS2_Code": "ITI4",
    "County_Code": 12
  },
  {
    "_id": 71,
    "Lat": 36.20834039,
    "Long": 9.73533715,
    "Area": "LAZ",
    "Area_Name": "Lazio",
    "Hospital_Unit": "ASL RM5 OSPEDALE PARODI DELFINO  DISTRETTO SANITARIO  G6 FARMACIA",
    "City": "COLLEFERRO RM",
    "District": "ROMA",
    "NUTS1_Code": "ITI",
    "NUTS2_Code": "ITI4",
    "County_Code": 12
  },
  {
    "_id": 72,
    "Lat": 40.27341862,
    "Long": 13.10714405,
    "Area": "LAZ",
    "Area_Name": "Lazio",
    "Hospital_Unit": "ASL RM3 OSPEDALE G.B. GRASSI",
    "City": "OSTIA-ROMA",
    "District": "ROMA",
    "NUTS1_Code": "ITI",
    "NUTS2_Code": "ITI4",
    "County_Code": 12
  },
  {
    "_id": 73,
    "Lat": 35.50881121,
    "Long": 9.26184612,
    "Area": "LAZ",
    "Area_Name": "Lazio",
    "Hospital_Unit": "ASL RM2 OSPEDALE SANDRO PERTINI",
    "City": "ROMA",
    "District": "ROMA",
    "NUTS1_Code": "ITI",
    "NUTS2_Code": "ITI4",
    "County_Code": 12
  },
  {
    "_id": 74,
    "Lat": 37.40695636,
    "Long": 10.22149698,
    "Area": "LAZ",
    "Area_Name": "Lazio",
    "Hospital_Unit": "AZIENDA OPEDALIERASAN CAMILLO-FORLANINI",
    "City": "ROMA",
    "District": "ROMA",
    "NUTS1_Code": "ITI",
    "NUTS2_Code": "ITI4",
    "County_Code": 12
  },
  {
    "_id": 75,
    "Lat": 35.02105119,
    "Long": 6.92953761,
    "Area": "LAZ",
    "Area_Name": "Lazio",
    "Hospital_Unit": "AZIENDA OSPEDALIERA UNIVERSITARIA SANT'ANDREA",
    "City": "ROMA",
    "District": "ROMA",
    "NUTS1_Code": "ITI",
    "NUTS2_Code": "ITI4",
    "County_Code": 12
  },
  {
    "_id": 76,
    "Lat": 40.91604418,
    "Long": 12.94388406,
    "Area": "LAZ",
    "Area_Name": "Lazio",
    "Hospital_Unit": "COMPRENSORIO SANTA MARIA DELLA PIET\u00c0 - PADIGLIONE 28",
    "City": "ROMA",
    "District": "ROMA",
    "NUTS1_Code": "ITI",
    "NUTS2_Code": "ITI4",
    "County_Code": 12
  },
  {
    "_id": 77,
    "Lat": 38.29472388,
    "Long": 13.26219832,
    "Area": "LAZ",
    "Area_Name": "Lazio",
    "Hospital_Unit": "IFO ISTITUTI FIOSIOTERAPICI OSPITALIERI",
    "City": "ROMA",
    "District": "ROMA",
    "NUTS1_Code": "ITI",
    "NUTS2_Code": "ITI4",
    "County_Code": 12
  },
  {
    "_id": 78,
    "Lat": 40.72180927,
    "Long": 11.55835168,
    "Area": "LAZ",
    "Area_Name": "Lazio",
    "Hospital_Unit": "IRCCS LAZZARO SPALLANZANI",
    "City": "ROMA",
    "District": "ROMA",
    "NUTS1_Code": "ITI",
    "NUTS2_Code": "ITI4",
    "County_Code": 12
  },
  {
    "_id": 79,
    "Lat": 39.89277986,
    "Long": 11.2554134,
    "Area": "LAZ",
    "Area_Name": "Lazio",
    "Hospital_Unit": "IRCCS OSPEDALE PEDIATRICO BAMBINO GES\u00d9",
    "City": "ROMA",
    "District": "ROMA",
    "NUTS1_Code": "ITI",
    "NUTS2_Code": "ITI4",
    "County_Code": 12
  },
  {
    "_id": 80,
    "Lat": 38.55536966,
    "Long": 11.22269982,
    "Area": "LAZ",
    "Area_Name": "Lazio",
    "Hospital_Unit": "POLICLINICO UMBERTO I",
    "City": "ROMA",
    "District": "ROMA",
    "NUTS1_Code": "ITI",
    "NUTS2_Code": "ITI4",
    "County_Code": 12
  },
  {
    "_id": 81,
    "Lat": 37.09985941,
    "Long": 7.06629161,
    "Area": "LAZ",
    "Area_Name": "Lazio",
    "Hospital_Unit": "POLICLINICO UNIVERSITARIO CAMPUS BIO-MEDICO",
    "City": "ROMA",
    "District": "ROMA",
    "NUTS1_Code": "ITI",
    "NUTS2_Code": "ITI4",
    "County_Code": 12
  },
  {
    "_id": 82,
    "Lat": 43.38458724,
    "Long": 6.85327937,
    "Area": "LAZ",
    "Area_Name": "Lazio",
    "Hospital_Unit": "OSPEDALE BEL COLLE",
    "City": "VITERBO",
    "District": "VITERBO",
    "NUTS1_Code": "ITI",
    "NUTS2_Code": "ITI4",
    "County_Code": 12
  },
  {
    "_id": 83,
    "Lat": 39.53360814,
    "Long": 7.78194206,
    "Area": "LIG",
    "Area_Name": "Liguria",
    "Hospital_Unit": "ENTE OSPEDALI GALLIERA",
    "City": "GENOVA",
    "District": "GENOVA (ASL3)",
    "NUTS1_Code": "ITC",
    "NUTS2_Code": "ITC3",
    "County_Code": 7
  },
  {
    "_id": 84,
    "Lat": 36.52188636,
    "Long": 8.72631738,
    "Area": "LIG",
    "Area_Name": "Liguria",
    "Hospital_Unit": "ISTITUTO G. GASLINI-IRCCS",
    "City": "GENOVA",
    "District": "GENOVA (ASL3)",
    "NUTS1_Code": "ITC",
    "NUTS2_Code": "ITC3",
    "County_Code": 7
  },
  {
    "_id": 85,
    "Lat": 44.81040668,
    "Long": 6.29396684,
    "Area": "LIG",
    "Area_Name": "Liguria",
    "Hospital_Unit": "OSPEDALE EVANGELICO INTERNAZIONALE",
    "City": "GENOVA",
    "District": "GENOVA (ASL3)",
    "NUTS1_Code": "ITC",
    "NUTS2_Code": "ITC3",
    "County_Code": 7
  },
  {
    "_id": 86,
    "Lat": 39.15354403,
    "Long": 13.28074108,
    "Area": "LIG",
    "Area_Name": "Liguria",
    "Hospital_Unit": "OSPEDALE POLICLINICO SAN MARTINO-IRCCS",
    "City": "GENOVA",
    "District": "GENOVA (ASL3)",
    "NUTS1_Code": "ITC",
    "NUTS2_Code": "ITC3",
    "County_Code": 7
  },
  {
    "_id": 87,
    "Lat": 43.98030742,
    "Long": 6.87702348,
    "Area": "LIG",
    "Area_Name": "Liguria",
    "Hospital_Unit": "OSPEDALE VILLA SCASSI",
    "City": "GENOVA",
    "District": "GENOVA (ASL3)",
    "NUTS1_Code": "ITC",
    "NUTS2_Code": "ITC3",
    "County_Code": 7
  },
  {
    "_id": 88,
    "Lat": 35.33821957,
    "Long": 6.70115289,
    "Area": "LIG",
    "Area_Name": "Liguria",
    "Hospital_Unit": "OSPEDALE SESTRI LEVANTE",
    "City": "SESTRI LEVANTE (GE)",
    "District": "GENOVA (ASL4)",
    "NUTS1_Code": "ITC",
    "NUTS2_Code": "ITC3",
    "County_Code": 7
  },
  {
    "_id": 89,
    "Lat": 39.65877323,
    "Long": 12.2665412,
    "Area": "LIG",
    "Area_Name": "Liguria",
    "Hospital_Unit": "OSPEDALE BORDIGHERA",
    "City": "BORDIGHERA (IM)",
    "District": "IMPERIA (ASL1)",
    "NUTS1_Code": "ITC",
    "NUTS2_Code": "ITC3",
    "County_Code": 7
  },
  {
    "_id": 90,
    "Lat": 44.08153184,
    "Long": 12.48929376,
    "Area": "LIG",
    "Area_Name": "Liguria",
    "Hospital_Unit": "OSPEDALE IMPERIA",
    "City": "IMPERIA",
    "District": "IMPERIA (ASL1)",
    "NUTS1_Code": "ITC",
    "NUTS2_Code": "ITC3",
    "County_Code": 7
  },
  {
    "_id": 91,
    "Lat": 36.11871392,
    "Long": 9.51927008,
    "Area": "LIG",
    "Area_Name": "Liguria",
    "Hospital_Unit": "OSPEDALE SANREMO",
    "City": "SANREMO (IM)",
    "District": "IMPERIA (ASL1)",
    "NUTS1_Code": "ITC",
    "NUTS2_Code": "ITC3",
    "County_Code": 7
  },
  {
    "_id": 92,
    "Lat": 44.5816685,
    "Long": 11.49147175,
    "Area": "LIG",
    "Area_Name": "Liguria",
    "Hospital_Unit": "OSPEDALE SANT'ANDREA",
    "City": "LA SPEZIA",
    "District": "LA SPEZIA (ASL5)",
    "NUTS1_Code": "ITC",
    "NUTS2_Code": "ITC3",
    "County_Code": 7
  },
  {
    "_id": 93,
    "Lat": 43.73401952,
    "Long": 12.0723392,
    "Area": "LIG",
    "Area_Name": "Liguria",
    "Hospital_Unit": "OSPEDALE SAN BARTOLOMEO",
    "City": "SARZANA (SP)",
    "District": "LA SPEZIA (ASL5)",
    "NUTS1_Code": "ITC",
    "NUTS2_Code": "ITC3",
    "County_Code": 7
  },
  {
    "_id": 94,
    "Lat": 42.05721899,
    "Long": 11.82690204,
    "Area": "LIG",
    "Area_Name": "Liguria",
    "Hospital_Unit": "OSPEDALE SAN GIUSEPPE - CAIRO MONTENOTTE",
    "City": "CAIRO MONTENOTTE (SV)",
    "District": "SAVONA (ASL2)",
    "NUTS1_Code": "ITC",
    "NUTS2_Code": "ITC3",
    "County_Code": 7
  },
  {
    "_id": 95,
    "Lat": 42.34054001,
    "Long": 13.02966736,
    "Area": "LIG",
    "Area_Name": "Liguria",
    "Hospital_Unit": "OSPEDALE SANTA CORONA",
    "City": "PIETRA LIGURA (SV)",
    "District": "SAVONA (ASL2)",
    "NUTS1_Code": "ITC",
    "NUTS2_Code": "ITC3",
    "County_Code": 7
  },
  {
    "_id": 96,
    "Lat": 44.82603136,
    "Long": 10.33452872,
    "Area": "LIG",
    "Area_Name": "Liguria",
    "Hospital_Unit": "OSPEDALE SAN PAOLO",
    "City": "SAVONA",
    "District": "SAVONA (ASL2)",
    "NUTS1_Code": "ITC",
    "NUTS2_Code": "ITC3",
    "County_Code": 7
  },
  {
    "_id": 97,
    "Lat": 46.33783829,
    "Long": 10.30132637,
    "Area": "LOM",
    "Area_Name": "Lombardia",
    "Hospital_Unit": "ASST BERGAMO EST ALZANO LOMBARDO",
    "City": "ALZANO LOMBARDO",
    "District": "BERGAMO",
    "NUTS1_Code": "ITC",
    "NUTS2_Code": "ITC4",
    "County_Code": 3
  },
  {
    "_id": 98,
    "Lat": 46.35904134,
    "Long": 6.22131485,
    "Area": "LOM",
    "Area_Name": "Lombardia",
    "Hospital_Unit": "ASST PAPA GIOVANNI XXIII 03090500 - BERGAMO OSPEDALI RIUNITI",
    "City": "BERGAMO",
    "District": "BERGAMO",
    "NUTS1_Code": "ITC",
    "NUTS2_Code": "ITC4",
    "County_Code": 3
  },
  {
    "_id": 99,
    "Lat": 41.44354204,
    "Long": 10.99128455,
    "Area": "LOM",
    "Area_Name": "Lombardia",
    "Hospital_Unit": "ASST DI BERGAMO EST 03038200 - GROPPINO PIARIO  OSP. M.O.A. LOCATELLI",
    "City": "PIARIO (BG)",
    "District": "BERGAMO",
    "NUTS1_Code": "ITC",
    "NUTS2_Code": "ITC4",
    "County_Code": 3
  },
  {
    "_id": 100,
    "Lat": 46.07008035,
    "Long": 7.62074242,
    "Area": "LOM",
    "Area_Name": "Lombardia",
    "Hospital_Unit": "ASST DI BERGAMO EST 03014000 - SERIATE OSP. BOLOGNINI",
    "City": "SERIATE",
    "District": "BERGAMO",
    "NUTS1_Code": "ITC",
    "NUTS2_Code": "ITC4",
    "County_Code": 3
  },
  {
    "_id": 101,
    "Lat": 45.8603952,
    "Long": 12.82726048,
    "Area": "LOM",
    "Area_Name": "Lombardia",
    "Hospital_Unit": "ASST BERGAMO OVEST TREVIGLIO",
    "City": "TREVIGLIO",
    "District": "BERGAMO",
    "NUTS1_Code": "ITC",
    "NUTS2_Code": "ITC4",
    "County_Code": 3
  },
  {
    "_id": 102,
    "Lat": 46.19073081,
    "Long": 10.75794157,
    "Area": "LOM",
    "Area_Name": "Lombardia",
    "Hospital_Unit": "ASST SPEDALI CIVILI DI BRESCIA, UOC FARMACIA AZIENDALE",
    "City": "BRESCIA",
    "District": "BRESCIA",
    "NUTS1_Code": "ITC",
    "NUTS2_Code": "ITC4",
    "County_Code": 3
  },
  {
    "_id": 103,
    "Lat": 46.40503843,
    "Long": 10.16841738,
    "Area": "LOM",
    "Area_Name": "Lombardia",
    "Hospital_Unit": "FONDAZIONE POLIAMBULANZA",
    "City": "BRESCIA",
    "District": "BRESCIA",
    "NUTS1_Code": "ITC",
    "NUTS2_Code": "ITC4",
    "County_Code": 3
  },
  {
    "_id": 104,
    "Lat": 45.7711893,
    "Long": 8.58451082,
    "Area": "LOM",
    "Area_Name": "Lombardia",
    "Hospital_Unit": "ISTITUTO CLINICO CITT\u00c0 DI BRESCIA DI ISTITUTI OSPEDALIERI BRESCIANI",
    "City": "BRESCIA",
    "District": "BRESCIA",
    "NUTS1_Code": "ITC",
    "NUTS2_Code": "ITC4",
    "County_Code": 3
  },
  {
    "_id": 105,
    "Lat": 46.20475862,
    "Long": 6.84062362,
    "Area": "LOM",
    "Area_Name": "Lombardia",
    "Hospital_Unit": "ASST FRANCIACORTA CHIARI",
    "City": "CHIARI",
    "District": "BRESCIA",
    "NUTS1_Code": "ITC",
    "NUTS2_Code": "ITC4",
    "County_Code": 3
  },
  {
    "_id": 106,
    "Lat": 38.56029496,
    "Long": 12.2713575,
    "Area": "LOM",
    "Area_Name": "Lombardia",
    "Hospital_Unit": "ASST DEL GARDA DESENZANO",
    "City": "DESENZANO",
    "District": "BRESCIA",
    "NUTS1_Code": "ITC",
    "NUTS2_Code": "ITC4",
    "County_Code": 3
  },
  {
    "_id": 107,
    "Lat": 46.791096,
    "Long": 12.17750893,
    "Area": "LOM",
    "Area_Name": "Lombardia",
    "Hospital_Unit": "ASST DELLA VALCAMONICA 03027402 - OSPEDALE VALCAMONICA - EDOLO",
    "City": "EDOLO",
    "District": "BRESCIA",
    "NUTS1_Code": "ITC",
    "NUTS2_Code": "ITC4",
    "County_Code": 3
  },
  {
    "_id": 108,
    "Lat": 46.7320513,
    "Long": 6.19067372,
    "Area": "LOM",
    "Area_Name": "Lombardia",
    "Hospital_Unit": "ASST VALCAMONICA ESINE",
    "City": "ESINE",
    "District": "BRESCIA",
    "NUTS1_Code": "ITC",
    "NUTS2_Code": "ITC4",
    "County_Code": 3
  },
  {
    "_id": 109,
    "Lat": 45.85804928,
    "Long": 8.4994315,
    "Area": "LOM",
    "Area_Name": "Lombardia",
    "Hospital_Unit": "ASST DEL GARDA 03015700 \n- GAVARDO OSP. CIV. LA MEMORIA",
    "City": "GAVARDO",
    "District": "BRESCIA",
    "NUTS1_Code": "ITC",
    "NUTS2_Code": "ITC4",
    "County_Code": 3
  },
  {
    "_id": 110,
    "Lat": 45.7570467,
    "Long": 11.41345713,
    "Area": "LOM",
    "Area_Name": "Lombardia",
    "Hospital_Unit": "ASST DELLA FRANCIACORTA 03016300 - ISEO OSP. CIVILE",
    "City": "ISEO",
    "District": "BRESCIA",
    "NUTS1_Code": "ITC",
    "NUTS2_Code": "ITC4",
    "County_Code": 3
  },
  {
    "_id": 111,
    "Lat": 45.92378928,
    "Long": 8.31420436,
    "Area": "LOM",
    "Area_Name": "Lombardia",
    "Hospital_Unit": "ASST GARDA MANERBIO",
    "City": "MANERBIO",
    "District": "BRESCIA",
    "NUTS1_Code": "ITC",
    "NUTS2_Code": "ITC4",
    "County_Code": 3
  },
  {
    "_id": 112,
    "Lat": 45.92145523,
    "Long": 6.00491832,
    "Area": "LOM",
    "Area_Name": "Lombardia",
    "Hospital_Unit": "ASST LARIANA 03002200 - CANTU' OSP. CIRCOLO",
    "City": "CANT\u00d9",
    "District": "COMO",
    "NUTS1_Code": "ITC",
    "NUTS2_Code": "ITC4",
    "County_Code": 3
  },
  {
    "_id": 113,
    "Lat": 46.57813632,
    "Long": 13.14009275,
    "Area": "LOM",
    "Area_Name": "Lombardia",
    "Hospital_Unit": "ASST LARIANA 03002600 - MENAGGIO OSP. DI ZONA",
    "City": "MENAGGIO",
    "District": "COMO",
    "NUTS1_Code": "ITC",
    "NUTS2_Code": "ITC4",
    "County_Code": 3
  },
  {
    "_id": 114,
    "Lat": 38.01267993,
    "Long": 13.11089265,
    "Area": "LOM",
    "Area_Name": "Lombardia",
    "Hospital_Unit": "ASST LARIANA - PRESIDIO OSPEDALIERO SANT'ANNA COMO",
    "City": "SAN FERMO DELLA BATTAGLIA",
    "District": "COMO",
    "NUTS1_Code": "ITC",
    "NUTS2_Code": "ITC4",
    "County_Code": 3
  },
  {
    "_id": 115,
    "Lat": 44.92421862,
    "Long": 7.30598107,
    "Area": "LOM",
    "Area_Name": "Lombardia",
    "Hospital_Unit": "ASST DI CREMONA 03027300 - CASALMAGGIORE OSPEDALE (OGLIO PO)",
    "City": ", CASALMAGGIORE",
    "District": "CREMONA",
    "NUTS1_Code": "ITC",
    "NUTS2_Code": "ITC4",
    "County_Code": 3
  },
  {
    "_id": 116,
    "Lat": 46.08477959,
    "Long": 12.51173501,
    "Area": "LOM",
    "Area_Name": "Lombardia",
    "Hospital_Unit": "ASST CREMA  OSPEDALE MAGGIORE DI CREMA",
    "City": "CREMA",
    "District": "CREMONA",
    "NUTS1_Code": "ITC",
    "NUTS2_Code": "ITC4",
    "County_Code": 3
  },
  {
    "_id": 117,
    "Lat": 45.23877407,
    "Long": 9.32019946,
    "Area": "LOM",
    "Area_Name": "Lombardia",
    "Hospital_Unit": "ASST CREMONA PRESIDIO CREMONA  IMMUNOEMATOLOGIA E MEDICINA TRASFUSIONALE",
    "City": "CREMONA",
    "District": "CREMONA",
    "NUTS1_Code": "ITC",
    "NUTS2_Code": "ITC4",
    "County_Code": 3
  },
  {
    "_id": 118,
    "Lat": 46.12699466,
    "Long": 9.36116394,
    "Area": "LOM",
    "Area_Name": "Lombardia",
    "Hospital_Unit": "ASST DI LECCO 03002300 - BELLANO OSP. CIRCOLO",
    "City": "BELLANO",
    "District": "LECCO",
    "NUTS1_Code": "ITC",
    "NUTS2_Code": "ITC4",
    "County_Code": 3
  },
  {
    "_id": 119,
    "Lat": 46.77250272,
    "Long": 7.08977314,
    "Area": "LOM",
    "Area_Name": "Lombardia",
    "Hospital_Unit": "ASST DI LECCO \"P.O.MANZONI\" LECCO",
    "City": "LECCO",
    "District": "LECCO",
    "NUTS1_Code": "ITC",
    "NUTS2_Code": "ITC4",
    "County_Code": 3
  },
  {
    "_id": 120,
    "Lat": 45.21581711,
    "Long": 8.26192997,
    "Area": "LOM",
    "Area_Name": "Lombardia",
    "Hospital_Unit": "ASST LODI - OSPEDALE CODOGNO",
    "City": "CODOGNO",
    "District": "LODI",
    "NUTS1_Code": "ITC",
    "NUTS2_Code": "ITC4",
    "County_Code": 3
  },
  {
    "_id": 121,
    "Lat": 45.43758329,
    "Long": 8.45415299,
    "Area": "LOM",
    "Area_Name": "Lombardia",
    "Hospital_Unit": "ASST LODI - OSPEDALE LODI",
    "City": "LODI",
    "District": "LODI",
    "NUTS1_Code": "ITC",
    "NUTS2_Code": "ITC4",
    "County_Code": 3
  },
  {
    "_id": 122,
    "Lat": 46.05849498,
    "Long": 11.40296131,
    "Area": "LOM",
    "Area_Name": "Lombardia",
    "Hospital_Unit": "ASST DI MANTOVA - POMA",
    "City": "MANTOVA",
    "District": "MANTOVA",
    "NUTS1_Code": "ITC",
    "NUTS2_Code": "ITC4",
    "County_Code": 3
  },
  {
    "_id": 123,
    "Lat": 46.36903613,
    "Long": 7.67734386,
    "Area": "LOM",
    "Area_Name": "Lombardia",
    "Hospital_Unit": "ASST NORD MILANO 03005800 - CINISELLO B. OSP. BASSINI",
    "City": "CINISELLO BALSAMO",
    "District": "MILANO",
    "NUTS1_Code": "ITC",
    "NUTS2_Code": "ITC4",
    "County_Code": 3
  },
  {
    "_id": 124,
    "Lat": 46.11379947,
    "Long": 10.23573803,
    "Area": "LOM",
    "Area_Name": "Lombardia",
    "Hospital_Unit": "ASST RHODENSE 03006600 - GARBAGNATE MILANESE OSP. SALVINI",
    "City": "GARBAGNATE MILANESE",
    "District": "MILANO",
    "NUTS1_Code": "ITC",
    "NUTS2_Code": "ITC4",
    "County_Code": 3
  },
  {
    "_id": 125,
    "Lat": 45.75035603,
    "Long": 9.52498963,
    "Area": "LOM",
    "Area_Name": "Lombardia",
    "Hospital_Unit": "ASST OVEST MILANESE LEGNANO",
    "City": "LEGNANO",
    "District": "MILANO",
    "NUTS1_Code": "ITC",
    "NUTS2_Code": "ITC4",
    "County_Code": 3
  },
  {
    "_id": 126,
    "Lat": 46.12238423,
    "Long": 12.5972503,
    "Area": "LOM",
    "Area_Name": "Lombardia",
    "Hospital_Unit": "ASST OVEST MILANESE MAGENTA",
    "City": "MAGENTA",
    "District": "MILANO",
    "NUTS1_Code": "ITC",
    "NUTS2_Code": "ITC4",
    "County_Code": 3
  },
  {
    "_id": 127,
    "Lat": 45.69304859,
    "Long": 11.31502156,
    "Area": "LOM",
    "Area_Name": "Lombardia",
    "Hospital_Unit": "ASST MELEGNANO E DELLA MARTESANA 03007101 - MELZO OSP. S.MARIA DELLE STELLE",
    "City": "MELZO",
    "District": "MILANO",
    "NUTS1_Code": "ITC",
    "NUTS2_Code": "ITC4",
    "County_Code": 3
  },
  {
    "_id": 128,
    "Lat": 43.47357964,
    "Long": 6.82445908,
    "Area": "LOM",
    "Area_Name": "Lombardia",
    "Hospital_Unit": "ASST FATEBENEFRATELLI SACCO 03091000 - MILANO OSP. FATEBENEFRATELLI OFTALMICO",
    "City": "MILANO",
    "District": "MILANO",
    "NUTS1_Code": "ITC",
    "NUTS2_Code": "ITC4",
    "County_Code": 3
  },
  {
    "_id": 129,
    "Lat": 40.09677368,
    "Long": 9.83615945,
    "Area": "LOM",
    "Area_Name": "Lombardia",
    "Hospital_Unit": "ASST FBF SACCO - P.O. SACCO",
    "City": "MILANO",
    "District": "MILANO",
    "NUTS1_Code": "ITC",
    "NUTS2_Code": "ITC4",
    "County_Code": 3
  },
  {
    "_id": 130,
    "Lat": 39.92223582,
    "Long": 12.42888005,
    "Area": "LOM",
    "Area_Name": "Lombardia",
    "Hospital_Unit": "ASST GAETANO PINI CTO",
    "City": "MILANO",
    "District": "MILANO",
    "NUTS1_Code": "ITC",
    "NUTS2_Code": "ITC4",
    "County_Code": 3
  },
  {
    "_id": 131,
    "Lat": 35.07894231,
    "Long": 11.56366007,
    "Area": "LOM",
    "Area_Name": "Lombardia",
    "Hospital_Unit": "ASST GRANDE OSPEDALE METROPOLITANO NIGUARDA",
    "City": "MILANO",
    "District": "MILANO",
    "NUTS1_Code": "ITC",
    "NUTS2_Code": "ITC4",
    "County_Code": 3
  },
  {
    "_id": 132,
    "Lat": 36.2486954,
    "Long": 8.45067062,
    "Area": "LOM",
    "Area_Name": "Lombardia",
    "Hospital_Unit": "ASST SANTI PAOLO E CARLO",
    "City": "MILANO",
    "District": "MILANO",
    "NUTS1_Code": "ITC",
    "NUTS2_Code": "ITC4",
    "County_Code": 3
  },
  {
    "_id": 133,
    "Lat": 44.87905319,
    "Long": 6.53381172,
    "Area": "LOM",
    "Area_Name": "Lombardia",
    "Hospital_Unit": "ASST SANTI PAOLO E CARLO 03091500 - MILANO OSP. S.CARLO",
    "City": "MILANO",
    "District": "MILANO",
    "NUTS1_Code": "ITC",
    "NUTS2_Code": "ITC4",
    "County_Code": 3
  },
  {
    "_id": 134,
    "Lat": 39.19258225,
    "Long": 8.0848471,
    "Area": "LOM",
    "Area_Name": "Lombardia",
    "Hospital_Unit": "FONDAZIONE IRCCS CA' GRANDA OSPEDALE MAGGIORE POLICLINICO",
    "City": "MILANO",
    "District": "MILANO",
    "NUTS1_Code": "ITC",
    "NUTS2_Code": "ITC4",
    "County_Code": 3
  },
  {
    "_id": 135,
    "Lat": 43.68052229,
    "Long": 10.90214845,
    "Area": "LOM",
    "Area_Name": "Lombardia",
    "Hospital_Unit": "FONDAZIONE IRCCS ISTITUTO NAZIONALE DEI TUMORI MILANO",
    "City": "MILANO",
    "District": "MILANO",
    "NUTS1_Code": "ITC",
    "NUTS2_Code": "ITC4",
    "County_Code": 3
  },
  {
    "_id": 136,
    "Lat": 42.51691772,
    "Long": 12.38940415,
    "Area": "LOM",
    "Area_Name": "Lombardia",
    "Hospital_Unit": "FONDAZIONE IRCCS ISTITUTO NEUROLOGICO BESTA",
    "City": "MILANO",
    "District": "MILANO",
    "NUTS1_Code": "ITC",
    "NUTS2_Code": "ITC4",
    "County_Code": 3
  },
  {
    "_id": 137,
    "Lat": 44.802988,
    "Long": 6.97633479,
    "Area": "LOM",
    "Area_Name": "Lombardia",
    "Hospital_Unit": "GRUPPO MULTIMEDICA - OSPEDALE SAN GIUSEPPE",
    "City": "MILANO",
    "District": "MILANO",
    "NUTS1_Code": "ITC",
    "NUTS2_Code": "ITC4",
    "County_Code": 3
  },
  {
    "_id": 138,
    "Lat": 40.2034111,
    "Long": 10.92577446,
    "Area": "LOM",
    "Area_Name": "Lombardia",
    "Hospital_Unit": "IRCCS OSPEDALE SAN RAFFAELE",
    "City": "MILANO",
    "District": "MILANO",
    "NUTS1_Code": "ITC",
    "NUTS2_Code": "ITC4",
    "County_Code": 3
  },
  {
    "_id": 139,
    "Lat": 44.7336843,
    "Long": 11.22788825,
    "Area": "LOM",
    "Area_Name": "Lombardia",
    "Hospital_Unit": "IRCSS SANTA MARIA NASCENTE (DON GNOCCHI)",
    "City": "MILANO",
    "District": "MILANO",
    "NUTS1_Code": "ITC",
    "NUTS2_Code": "ITC4",
    "County_Code": 3
  },
  {
    "_id": 140,
    "Lat": 40.99510552,
    "Long": 13.10834566,
    "Area": "LOM",
    "Area_Name": "Lombardia",
    "Hospital_Unit": "ISTITUTO AUXOLOGICO ITALIANO - OSPEDALE SAN LUCA",
    "City": "MILANO",
    "District": "MILANO",
    "NUTS1_Code": "ITC",
    "NUTS2_Code": "ITC4",
    "County_Code": 3
  },
  {
    "_id": 141,
    "Lat": 44.40457063,
    "Long": 6.77672644,
    "Area": "LOM",
    "Area_Name": "Lombardia",
    "Hospital_Unit": "PIO ALBERGO TRIVULZIO",
    "City": "MILANO",
    "District": "MILANO",
    "NUTS1_Code": "ITC",
    "NUTS2_Code": "ITC4",
    "County_Code": 3
  },
  {
    "_id": 142,
    "Lat": 46.10820354,
    "Long": 13.80057479,
    "Area": "LOM",
    "Area_Name": "Lombardia",
    "Hospital_Unit": "ASST RHODENSE 03007300 - RHO  OSP. CIRCOLO",
    "City": "RHO",
    "District": "MILANO",
    "NUTS1_Code": "ITC",
    "NUTS2_Code": "ITC4",
    "County_Code": 3
  },
  {
    "_id": 143,
    "Lat": 45.85322131,
    "Long": 13.94037023,
    "Area": "LOM",
    "Area_Name": "Lombardia",
    "Hospital_Unit": "HUMANTIAS MIRASOLE",
    "City": "ROZZANO",
    "District": "MILANO",
    "NUTS1_Code": "ITC",
    "NUTS2_Code": "ITC4",
    "County_Code": 3
  },
  {
    "_id": 144,
    "Lat": 46.33985998,
    "Long": 12.85062861,
    "Area": "LOM",
    "Area_Name": "Lombardia",
    "Hospital_Unit": "IRCCS POLICLINICO SAN DONATO S.P.A.",
    "City": "SAN DONATO MILANESE",
    "District": "MILANO",
    "NUTS1_Code": "ITC",
    "NUTS2_Code": "ITC4",
    "County_Code": 3
  },
  {
    "_id": 145,
    "Lat": 35.73617091,
    "Long": 9.39903905,
    "Area": "LOM",
    "Area_Name": "Lombardia",
    "Hospital_Unit": "ASST NORD MILANO - P.O. SESTO S.G.",
    "City": "SESTO",
    "District": "MILANO",
    "NUTS1_Code": "ITC",
    "NUTS2_Code": "ITC4",
    "County_Code": 3
  },
  {
    "_id": 146,
    "Lat": 38.67844351,
    "Long": 11.53613903,
    "Area": "LOM",
    "Area_Name": "Lombardia",
    "Hospital_Unit": "ASST MELEGNANO E DELLA MARTESANA 03007201 - MELEGNANO OSP. PREDABISSI",
    "City": "VIZZOLO PREDABISSI",
    "District": "MILANO",
    "NUTS1_Code": "ITC",
    "NUTS2_Code": "ITC4",
    "County_Code": 3
  },
  {
    "_id": 147,
    "Lat": 45.69566594,
    "Long": 6.10911394,
    "Area": "LOM",
    "Area_Name": "Lombardia",
    "Hospital_Unit": "ASST DI MONZA 03006800 - DESIO OSP. CIRCOLO",
    "City": "DESIO",
    "District": "MONZA BRIANZA",
    "NUTS1_Code": "ITC",
    "NUTS2_Code": "ITC4",
    "County_Code": 3
  },
  {
    "_id": 148,
    "Lat": 46.08996997,
    "Long": 7.49034764,
    "Area": "LOM",
    "Area_Name": "Lombardia",
    "Hospital_Unit": "ASST DI MONZA 03090900 - MONZA OSP. S.GERARDO",
    "City": "MONZA",
    "District": "MONZA BRIANZA",
    "NUTS1_Code": "ITC",
    "NUTS2_Code": "ITC4",
    "County_Code": 3
  },
  {
    "_id": 149,
    "Lat": 45.8723768,
    "Long": 6.807569,
    "Area": "LOM",
    "Area_Name": "Lombardia",
    "Hospital_Unit": "ASST VIMERCATE",
    "City": "VIMERCATE",
    "District": "MONZA BRIANZA",
    "NUTS1_Code": "ITC",
    "NUTS2_Code": "ITC4",
    "County_Code": 3
  },
  {
    "_id": 150,
    "Lat": 45.98585325,
    "Long": 8.38040227,
    "Area": "LOM",
    "Area_Name": "Lombardia",
    "Hospital_Unit": "FONDAZIONE IRCCS POLICLINICO SAN MATTEO",
    "City": "PAVIA",
    "District": "PAVIA",
    "NUTS1_Code": "ITC",
    "NUTS2_Code": "ITC4",
    "County_Code": 3
  },
  {
    "_id": 151,
    "Lat": 45.51360611,
    "Long": 11.48870863,
    "Area": "LOM",
    "Area_Name": "Lombardia",
    "Hospital_Unit": "ASST DI PAVIA 03019300 - VIGEVANO OSP. CIVILE",
    "City": "VIGEVANO",
    "District": "PAVIA",
    "NUTS1_Code": "ITC",
    "NUTS2_Code": "ITC4",
    "County_Code": 3
  },
  {
    "_id": 152,
    "Lat": 45.91927732,
    "Long": 9.82210804,
    "Area": "LOM",
    "Area_Name": "Lombardia",
    "Hospital_Unit": "ASST DI PAVIA 03019400 - VOGHERA OSP. CIVILE",
    "City": "VOGHERA",
    "District": "PAVIA",
    "NUTS1_Code": "ITC",
    "NUTS2_Code": "ITC4",
    "County_Code": 3
  },
  {
    "_id": 153,
    "Lat": 47.30975629,
    "Long": 8.88051681,
    "Area": "LOM",
    "Area_Name": "Lombardia",
    "Hospital_Unit": "ASST DELLA VALTELLINA E DELL'ALTO LARIO 03004400 - CHIAVENNA OSP. CIVILE",
    "City": "CHIAVENNA",
    "District": "SONDRIO",
    "NUTS1_Code": "ITC",
    "NUTS2_Code": "ITC4",
    "County_Code": 3
  },
  {
    "_id": 154,
    "Lat": 47.01405487,
    "Long": 7.9542761,
    "Area": "LOM",
    "Area_Name": "Lombardia",
    "Hospital_Unit": "ASST DELLA VALTELLINA E DELL'ALTO LARIO 03090400 - SONDALO OSP. EUGENIO MORELLI",
    "City": "SONDALO",
    "District": "SONDRIO",
    "NUTS1_Code": "ITC",
    "NUTS2_Code": "ITC4",
    "County_Code": 3
  },
  {
    "_id": 155,
    "Lat": 46.62315999,
    "Long": 8.94656042,
    "Area": "LOM",
    "Area_Name": "Lombardia",
    "Hospital_Unit": "ASST VALTELLINA E DELL'ALTO LARIO PO DI SONDRIO",
    "City": "SONDRIO",
    "District": "SONDRIO",
    "NUTS1_Code": "ITC",
    "NUTS2_Code": "ITC4",
    "County_Code": 3
  },
  {
    "_id": 156,
    "Lat": 46.21952257,
    "Long": 10.00449586,
    "Area": "LOM",
    "Area_Name": "Lombardia",
    "Hospital_Unit": "ASST DEI SETTE LAGHI 03001200 - ANGERA OSP. ONDOLI",
    "City": "ANGERA",
    "District": "VARESE",
    "NUTS1_Code": "ITC",
    "NUTS2_Code": "ITC4",
    "County_Code": 3
  },
  {
    "_id": 157,
    "Lat": 45.73119211,
    "Long": 10.82045017,
    "Area": "LOM",
    "Area_Name": "Lombardia",
    "Hospital_Unit": "ASST VALLE OLONA DI BUSTO ARSIZIO - PRESIDIO DI BUSTO ARSIZIO",
    "City": "BUSTO ARSIZIO",
    "District": "VARESE",
    "NUTS1_Code": "ITC",
    "NUTS2_Code": "ITC4",
    "County_Code": 3
  },
  {
    "_id": 158,
    "Lat": 46.37224253,
    "Long": 8.72757913,
    "Area": "LOM",
    "Area_Name": "Lombardia",
    "Hospital_Unit": "ASST DELLA VALLE OLONA 03000600 - GALLARATE OSP. S.ANTONIO ABATE",
    "City": "GALLARATE",
    "District": "VARESE",
    "NUTS1_Code": "ITC",
    "NUTS2_Code": "ITC4",
    "County_Code": 3
  },
  {
    "_id": 159,
    "Lat": 46.68717,
    "Long": 10.53366661,
    "Area": "LOM",
    "Area_Name": "Lombardia",
    "Hospital_Unit": "ASST DEI SETTE LAGHI 03028202 - LUINO PRES.DEL VERBANO",
    "City": "LUINO",
    "District": "VARESE",
    "NUTS1_Code": "ITC",
    "NUTS2_Code": "ITC4",
    "County_Code": 3
  },
  {
    "_id": 160,
    "Lat": 46.19949862,
    "Long": 6.10389637,
    "Area": "LOM",
    "Area_Name": "Lombardia",
    "Hospital_Unit": "ASST DELLA VALLE OLONA 03000800 - SARONNO OSP. CIRCOLO",
    "City": "SARONNO",
    "District": "VARESE",
    "NUTS1_Code": "ITC",
    "NUTS2_Code": "ITC4",
    "County_Code": 3
  },
  {
    "_id": 161,
    "Lat": 46.78260581,
    "Long": 8.81533797,
    "Area": "LOM",
    "Area_Name": "Lombardia",
    "Hospital_Unit": "ASST SETTE LAGHI",
    "City": "VARESE",
    "District": "VARESE",
    "NUTS1_Code": "ITC",
    "NUTS2_Code": "ITC4",
    "County_Code": 3
  },
  {
    "_id": 162,
    "Lat": 44.54560359,
    "Long": 9.90331496,
    "Area": "MAR",
    "Area_Name": "Marche",
    "Hospital_Unit": "INRCA - PRESIDIO OSPEDALIERO DI RICERCA",
    "City": "ANCONA",
    "District": "ANCONA",
    "NUTS1_Code": "ITI",
    "NUTS2_Code": "ITI3",
    "County_Code": 11
  },
  {
    "_id": 163,
    "Lat": 44.11560129,
    "Long": 13.81958912,
    "Area": "MAR",
    "Area_Name": "Marche",
    "Hospital_Unit": "OSPEDALE \"CARLO URBANI\" - HUB",
    "City": "JESI",
    "District": "ANCONA",
    "NUTS1_Code": "ITI",
    "NUTS2_Code": "ITI3",
    "County_Code": 11
  },
  {
    "_id": 164,
    "Lat": 43.82799086,
    "Long": 8.01790463,
    "Area": "MAR",
    "Area_Name": "Marche",
    "Hospital_Unit": "OSPEDALE MADONNA DEL SOCCORSO",
    "City": "SAN BENEDETTO DEL TRONTO",
    "District": "ASCOLI PICENO",
    "NUTS1_Code": "ITI",
    "NUTS2_Code": "ITI3",
    "County_Code": 11
  },
  {
    "_id": 165,
    "Lat": 43.96565049,
    "Long": 7.73974377,
    "Area": "MAR",
    "Area_Name": "Marche",
    "Hospital_Unit": "OSPEDALE AUGUSTO MURRI - FERMO",
    "City": "FERMO",
    "District": "FERMO",
    "NUTS1_Code": "ITI",
    "NUTS2_Code": "ITI3",
    "County_Code": 11
  },
  {
    "_id": 166,
    "Lat": 43.98470464,
    "Long": 13.00161131,
    "Area": "MAR",
    "Area_Name": "Marche",
    "Hospital_Unit": "OSPEDALE DI CAMERINO",
    "City": "CAMERINO",
    "District": "MACERATA",
    "NUTS1_Code": "ITI",
    "NUTS2_Code": "ITI3",
    "County_Code": 11
  },
  {
    "_id": 167,
    "Lat": 43.85919519,
    "Long": 8.33183884,
    "Area": "MAR",
    "Area_Name": "Marche",
    "Hospital_Unit": "OSPEDALE DI CIVITANOVA MARCHE",
    "City": "CIVITANOVA MARCHE",
    "District": "MACERATA",
    "NUTS1_Code": "ITI",
    "NUTS2_Code": "ITI3",
    "County_Code": 11
  },
  {
    "_id": 168,
    "Lat": 44.33600799,
    "Long": 7.89085364,
    "Area": "MAR",
    "Area_Name": "Marche",
    "Hospital_Unit": "OSPEDALE DI COMUNIT\u00c0 FOSSOMBRONE",
    "City": "FOSSOMBRONE",
    "District": "PESARO URBINO",
    "NUTS1_Code": "ITI",
    "NUTS2_Code": "ITI3",
    "County_Code": 11
  },
  {
    "_id": 169,
    "Lat": 41.7213062,
    "Long": 9.93168517,
    "Area": "MOL",
    "Area_Name": "Molise",
    "Hospital_Unit": "P.O. \"A. CARDARELLI\"",
    "City": "CAMPOBASSO",
    "District": "CAMPOBASSO",
    "NUTS1_Code": "ITF",
    "NUTS2_Code": "ITF2",
    "County_Code": 14
  },
  {
    "_id": 170,
    "Lat": 42.5450762,
    "Long": 8.61499418,
    "Area": "MOL",
    "Area_Name": "Molise",
    "Hospital_Unit": "P.O. \"SAN TIMOTEO\"",
    "City": "TERMOLI",
    "District": "CAMPOBASSO",
    "NUTS1_Code": "ITF",
    "NUTS2_Code": "ITF2",
    "County_Code": 14
  },
  {
    "_id": 171,
    "Lat": 47.25910955,
    "Long": 7.90046278,
    "Area": "PAB",
    "Area_Name": "Provincia Autonoma Bolzano / Bozen",
    "Hospital_Unit": "OSPEDALE DI BOLZANO",
    "City": "BOLZANO",
    "District": "PA BOLZANO",
    "NUTS1_Code": "ITH",
    "NUTS2_Code": "ITH1",
    "County_Code": 4
  },
  {
    "_id": 172,
    "Lat": 47.01315723,
    "Long": 9.81987883,
    "Area": "PAB",
    "Area_Name": "Provincia Autonoma Bolzano / Bozen",
    "Hospital_Unit": "OSPEDALE DI BRESSANONE",
    "City": "BRESSANONE",
    "District": "PA BOLZANO",
    "NUTS1_Code": "ITH",
    "NUTS2_Code": "ITH1",
    "County_Code": 4
  },
  {
    "_id": 173,
    "Lat": 47.476124,
    "Long": 10.88948607,
    "Area": "PAB",
    "Area_Name": "Provincia Autonoma Bolzano / Bozen",
    "Hospital_Unit": "OSPEDALE DI BRUNICO",
    "City": "BRUNICO",
    "District": "PA BOLZANO",
    "NUTS1_Code": "ITH",
    "NUTS2_Code": "ITH1",
    "County_Code": 4
  },
  {
    "_id": 174,
    "Lat": 46.919787,
    "Long": 6.25629793,
    "Area": "PAB",
    "Area_Name": "Provincia Autonoma Bolzano / Bozen",
    "Hospital_Unit": "OSPEDALE DI MERANO",
    "City": "MERANO",
    "District": "PA BOLZANO",
    "NUTS1_Code": "ITH",
    "NUTS2_Code": "ITH1",
    "County_Code": 4
  },
  {
    "_id": 175,
    "Lat": 35.02920547,
    "Long": 8.70061801,
    "Area": "PAB",
    "Area_Name": "Provincia Autonoma Bolzano / Bozen",
    "Hospital_Unit": "OSPEDALE DI SAN CANDIDO",
    "City": "SAN CANDIDO BZ",
    "District": "PA BOLZANO",
    "NUTS1_Code": "ITH",
    "NUTS2_Code": "ITH1",
    "County_Code": 4
  },
  {
    "_id": 176,
    "Lat": 47.48151271,
    "Long": 6.52635614,
    "Area": "PAB",
    "Area_Name": "Provincia Autonoma Bolzano / Bozen",
    "Hospital_Unit": "OSPEDALE DI SILANDRO",
    "City": "SILANDRO",
    "District": "PA BOLZANO",
    "NUTS1_Code": "ITH",
    "NUTS2_Code": "ITH1",
    "County_Code": 4
  },
  {
    "_id": 177,
    "Lat": 36.11169937,
    "Long": 7.98761759,
    "Area": "PAB",
    "Area_Name": "Provincia Autonoma Bolzano / Bozen",
    "Hospital_Unit": "OSPEDALE DI VIPITENO",
    "City": "VIPITENO BZ",
    "District": "PA BOLZANO",
    "NUTS1_Code": "ITH",
    "NUTS2_Code": "ITH1",
    "County_Code": 4
  },
  {
    "_id": 178,
    "Lat": 38.06186861,
    "Long": 11.46558004,
    "Area": "PAT",
    "Area_Name": "Provincia Autonoma Trento",
    "Hospital_Unit": "HUB - UNIFARM",
    "City": "RAVINA",
    "District": "PA TRENTO",
    "NUTS1_Code": "ITH",
    "NUTS2_Code": "ITH2",
    "County_Code": 4
  },
  {
    "_id": 179,
    "Lat": 46.73254436,
    "Long": 7.51754398,
    "Area": "PAT",
    "Area_Name": "Provincia Autonoma Trento",
    "Hospital_Unit": "OSPEDALE DI ROVERETO",
    "City": "ROVERETO",
    "District": "PA TRENTO",
    "NUTS1_Code": "ITH",
    "NUTS2_Code": "ITH2",
    "County_Code": 4
  },
  {
    "_id": 180,
    "Lat": 46.82184734,
    "Long": 9.47845795,
    "Area": "PAT",
    "Area_Name": "Provincia Autonoma Trento",
    "Hospital_Unit": "OSPEDALE DI TRENTO",
    "City": "TRENTO",
    "District": "PA TRENTO",
    "NUTS1_Code": "ITH",
    "NUTS2_Code": "ITH2",
    "County_Code": 4
  },
  {
    "_id": 181,
    "Lat": 45.25398471,
    "Long": 8.17219891,
    "Area": "PIE",
    "Area_Name": "Piemonte",
    "Hospital_Unit": "AOU SANTI ANTONIO BIAGIO E CESARE ARRIGO ALESSANDRIA",
    "City": "ALESSANDRIA",
    "District": "ALESSANDRIA",
    "NUTS1_Code": "ITC",
    "NUTS2_Code": "ITC1",
    "County_Code": 1
  },
  {
    "_id": 182,
    "Lat": 45.76369229,
    "Long": 10.57789383,
    "Area": "PIE",
    "Area_Name": "Piemonte",
    "Hospital_Unit": "ASL AL OSPEDALE CASALE  MONFERRATO",
    "City": "CASALE MONFERRATO",
    "District": "ALESSANDRIA",
    "NUTS1_Code": "ITC",
    "NUTS2_Code": "ITC1",
    "County_Code": 1
  },
  {
    "_id": 183,
    "Lat": 45.38637615,
    "Long": 9.45548049,
    "Area": "PIE",
    "Area_Name": "Piemonte",
    "Hospital_Unit": "ASL AL OSPEDALE NOVI LIGURE",
    "City": "NOVI LIGURE",
    "District": "ALESSANDRIA",
    "NUTS1_Code": "ITC",
    "NUTS2_Code": "ITC1",
    "County_Code": 1
  },
  {
    "_id": 184,
    "Lat": 45.06808904,
    "Long": 9.91226862,
    "Area": "PIE",
    "Area_Name": "Piemonte",
    "Hospital_Unit": "ASL AL OSPEDALE TORTONA",
    "City": "TORTONA",
    "District": "ALESSANDRIA",
    "NUTS1_Code": "ITC",
    "NUTS2_Code": "ITC1",
    "County_Code": 1
  },
  {
    "_id": 185,
    "Lat": 45.15177983,
    "Long": 13.9386689,
    "Area": "PIE",
    "Area_Name": "Piemonte",
    "Hospital_Unit": "ASL AT OSPEDALE CARDINAL MASSAIA ASTI",
    "City": "ASTI",
    "District": "ASTI",
    "NUTS1_Code": "ITC",
    "NUTS2_Code": "ITC1",
    "County_Code": 1
  },
  {
    "_id": 186,
    "Lat": 45.7339961,
    "Long": 10.40070191,
    "Area": "PIE",
    "Area_Name": "Piemonte",
    "Hospital_Unit": "ASL AT OSPEDALE NIZZA MONFERRATO",
    "City": "NIZZA MONFERRATO",
    "District": "ASTI",
    "NUTS1_Code": "ITC",
    "NUTS2_Code": "ITC1",
    "County_Code": 1
  },
  {
    "_id": 187,
    "Lat": 37.91985577,
    "Long": 6.94983339,
    "Area": "PIE",
    "Area_Name": "Piemonte",
    "Hospital_Unit": "ASL BI OSPEDALE DEGLI INFERMI BIELLA",
    "City": "PONDERANO",
    "District": "BIELLA",
    "NUTS1_Code": "ITC",
    "NUTS2_Code": "ITC1",
    "County_Code": 1
  },
  {
    "_id": 188,
    "Lat": 44.88626039,
    "Long": 7.6433153,
    "Area": "PIE",
    "Area_Name": "Piemonte",
    "Hospital_Unit": "AO S. CROCE E CARLE CUNEO",
    "City": "CUNEO",
    "District": "CUNEO",
    "NUTS1_Code": "ITC",
    "NUTS2_Code": "ITC1",
    "County_Code": 1
  },
  {
    "_id": 189,
    "Lat": 41.19183449,
    "Long": 12.74441311,
    "Area": "PIE",
    "Area_Name": "Piemonte",
    "Hospital_Unit": "ASL CN 1 OSPEDALE MONDOVI\u2019",
    "City": "MONDOVI\u2019",
    "District": "CUNEO",
    "NUTS1_Code": "ITC",
    "NUTS2_Code": "ITC1",
    "County_Code": 1
  },
  {
    "_id": 190,
    "Lat": 45.21143823,
    "Long": 10.6643428,
    "Area": "PIE",
    "Area_Name": "Piemonte",
    "Hospital_Unit": "ASL CN 1 OSPEDALE SAVIGLIANO",
    "City": "SAVIGLIANO",
    "District": "CUNEO",
    "NUTS1_Code": "ITC",
    "NUTS2_Code": "ITC1",
    "County_Code": 1
  },
  {
    "_id": 191,
    "Lat": 37.09760537,
    "Long": 13.02138351,
    "Area": "PIE",
    "Area_Name": "Piemonte",
    "Hospital_Unit": "ASL CN 2 OSPEDALE VERDUNO",
    "City": "VERDUNO",
    "District": "CUNEO",
    "NUTS1_Code": "ITC",
    "NUTS2_Code": "ITC1",
    "County_Code": 1
  },
  {
    "_id": 192,
    "Lat": 45.8377295,
    "Long": 6.51275371,
    "Area": "PIE",
    "Area_Name": "Piemonte",
    "Hospital_Unit": "ASL NO OSPEDALE BORGOMANERO",
    "City": "BORGOMANERO",
    "District": "NOVARA",
    "NUTS1_Code": "ITC",
    "NUTS2_Code": "ITC1",
    "County_Code": 1
  },
  {
    "_id": 193,
    "Lat": 45.45009402,
    "Long": 10.89262281,
    "Area": "PIE",
    "Area_Name": "Piemonte",
    "Hospital_Unit": "AOU MAGGIORE DELLA CARITA\u2019 NOVARA",
    "City": "NOVARA",
    "District": "NOVARA",
    "NUTS1_Code": "ITC",
    "NUTS2_Code": "ITC1",
    "County_Code": 1
  },
  {
    "_id": 194,
    "Lat": 45.80676317,
    "Long": 13.73649133,
    "Area": "PIE",
    "Area_Name": "Piemonte",
    "Hospital_Unit": "ASL NOVARA",
    "City": "NOVARA",
    "District": "NOVARA",
    "NUTS1_Code": "ITC",
    "NUTS2_Code": "ITC1",
    "County_Code": 1
  },
  {
    "_id": 195,
    "Lat": 46.15434604,
    "Long": 10.2538094,
    "Area": "PIE",
    "Area_Name": "Piemonte",
    "Hospital_Unit": "ASL TO 4 OSPEDALE CHIVASSO",
    "City": "CHIVASSO",
    "District": "TORINO",
    "NUTS1_Code": "ITC",
    "NUTS2_Code": "ITC1",
    "County_Code": 1
  },
  {
    "_id": 196,
    "Lat": 36.7131057,
    "Long": 10.88128412,
    "Area": "PIE",
    "Area_Name": "Piemonte",
    "Hospital_Unit": "ASL TO 4 OSPEDALE CIRIE\u2019",
    "City": "CIRIE\u2019",
    "District": "TORINO",
    "NUTS1_Code": "ITC",
    "NUTS2_Code": "ITC1",
    "County_Code": 1
  },
  {
    "_id": 197,
    "Lat": 46.40321871,
    "Long": 9.2981099,
    "Area": "PIE",
    "Area_Name": "Piemonte",
    "Hospital_Unit": "ASL TO 4 OSPEDALE IVREA",
    "City": "IVREA",
    "District": "TORINO",
    "NUTS1_Code": "ITC",
    "NUTS2_Code": "ITC1",
    "County_Code": 1
  },
  {
    "_id": 198,
    "Lat": 45.75936447,
    "Long": 13.56902315,
    "Area": "PIE",
    "Area_Name": "Piemonte",
    "Hospital_Unit": "ASL TO 5 OSPEDALE MONCALIERI",
    "City": "MONCALIERI",
    "District": "TORINO",
    "NUTS1_Code": "ITC",
    "NUTS2_Code": "ITC1",
    "County_Code": 1
  },
  {
    "_id": 199,
    "Lat": 45.82197227,
    "Long": 12.99413831,
    "Area": "PIE",
    "Area_Name": "Piemonte",
    "Hospital_Unit": "AOU SAN LUIGI GONZAGA  ORBASSANO",
    "City": "ORBASSANO",
    "District": "TORINO",
    "NUTS1_Code": "ITC",
    "NUTS2_Code": "ITC1",
    "County_Code": 1
  },
  {
    "_id": 200,
    "Lat": 45.22850342,
    "Long": 6.61911308,
    "Area": "PIE",
    "Area_Name": "Piemonte",
    "Hospital_Unit": "ASL TO 3 OSPEDALE PINEROLO",
    "City": "PINEROLO",
    "District": "TORINO",
    "NUTS1_Code": "ITC",
    "NUTS2_Code": "ITC1",
    "County_Code": 1
  },
  {
    "_id": 201,
    "Lat": 45.14742521,
    "Long": 8.1575525,
    "Area": "PIE",
    "Area_Name": "Piemonte",
    "Hospital_Unit": "ASL TO 3 OSPEDALE RIVOLI",
    "City": "RIVOLI",
    "District": "TORINO",
    "NUTS1_Code": "ITC",
    "NUTS2_Code": "ITC1",
    "County_Code": 1
  },
  {
    "_id": 202,
    "Lat": 35.92333757,
    "Long": 10.15268559,
    "Area": "PIE",
    "Area_Name": "Piemonte",
    "Hospital_Unit": "AO MAURIZIANO TORINO",
    "City": "TORINO",
    "District": "TORINO",
    "NUTS1_Code": "ITC",
    "NUTS2_Code": "ITC1",
    "County_Code": 1
  },
  {
    "_id": 203,
    "Lat": 37.24259979,
    "Long": 7.06293837,
    "Area": "PIE",
    "Area_Name": "Piemonte",
    "Hospital_Unit": "AOU CITTA\u2019 DELLA SALUTE E DELLA SCIENZA DI TORINO",
    "City": "TORINO",
    "District": "TORINO",
    "NUTS1_Code": "ITC",
    "NUTS2_Code": "ITC1",
    "County_Code": 1
  },
  {
    "_id": 204,
    "Lat": 35.69072964,
    "Long": 12.8341097,
    "Area": "PIE",
    "Area_Name": "Piemonte",
    "Hospital_Unit": "ASL CITTA\u2019 DI TORINO OSPEDALE SAN GIOVANNI BOSCO/OSPEDALE MARIA VITTORIA",
    "City": "TORINO",
    "District": "TORINO",
    "NUTS1_Code": "ITC",
    "NUTS2_Code": "ITC1",
    "County_Code": 1
  },
  {
    "_id": 205,
    "Lat": 46.77210929,
    "Long": 10.69520617,
    "Area": "PIE",
    "Area_Name": "Piemonte",
    "Hospital_Unit": "ASL VCO OSPEDALE DOMODOSSOLA",
    "City": "DOMODOSSOLA",
    "District": "VERBANO CUSIO OSSOLA",
    "NUTS1_Code": "ITC",
    "NUTS2_Code": "ITC1",
    "County_Code": 1
  },
  {
    "_id": 206,
    "Lat": 40.15045562,
    "Long": 10.98466178,
    "Area": "PIE",
    "Area_Name": "Piemonte",
    "Hospital_Unit": "ASL VCO OSPEDALE VERBANIA",
    "City": "PALLANZA",
    "District": "VERBANO CUSIO OSSOLA",
    "NUTS1_Code": "ITC",
    "NUTS2_Code": "ITC1",
    "County_Code": 1
  },
  {
    "_id": 207,
    "Lat": 46.24384885,
    "Long": 12.64555958,
    "Area": "PIE",
    "Area_Name": "Piemonte",
    "Hospital_Unit": "ASL VC OSPEDALE BORGOSESIA",
    "City": "BORGOSESIA",
    "District": "VERCELLI",
    "NUTS1_Code": "ITC",
    "NUTS2_Code": "ITC1",
    "County_Code": 1
  },
  {
    "_id": 208,
    "Lat": 45.79444905,
    "Long": 12.83014473,
    "Area": "PIE",
    "Area_Name": "Piemonte",
    "Hospital_Unit": "ASL VC OSPEDALE S. ANDREA VERCELLI",
    "City": "VERCELLI",
    "District": "VERCELLI",
    "NUTS1_Code": "ITC",
    "NUTS2_Code": "ITC1",
    "County_Code": 1
  },
  {
    "_id": 209,
    "Lat": 41.11529052,
    "Long": 8.30953218,
    "Area": "PUG",
    "Area_Name": "Puglia",
    "Hospital_Unit": "IRCCS MIULLI",
    "City": "ACQUAVIVA DELLE FONTI",
    "District": "BARI",
    "NUTS1_Code": "ITF",
    "NUTS2_Code": "ITF4",
    "County_Code": 16
  },
  {
    "_id": 210,
    "Lat": 41.72733594,
    "Long": 6.60432512,
    "Area": "PUG",
    "Area_Name": "Puglia",
    "Hospital_Unit": "CONSORZIALE POLICLINICO",
    "City": "BARI",
    "District": "BARI",
    "NUTS1_Code": "ITF",
    "NUTS2_Code": "ITF4",
    "County_Code": 16
  },
  {
    "_id": 211,
    "Lat": 41.51573572,
    "Long": 12.21771626,
    "Area": "PUG",
    "Area_Name": "Puglia",
    "Hospital_Unit": "IRCCS GIOVANNI PAOLO II",
    "City": "BARI",
    "District": "BARI",
    "NUTS1_Code": "ITF",
    "NUTS2_Code": "ITF4",
    "County_Code": 16
  },
  {
    "_id": 212,
    "Lat": 41.2859595,
    "Long": 8.69906156,
    "Area": "PUG",
    "Area_Name": "Puglia",
    "Hospital_Unit": "IRCCS DE BELLIS",
    "City": "CASTELLANA GROTTE",
    "District": "BARI",
    "NUTS1_Code": "ITF",
    "NUTS2_Code": "ITF4",
    "County_Code": 16
  },
  {
    "_id": 213,
    "Lat": 41.79842844,
    "Long": 8.04590796,
    "Area": "PUG",
    "Area_Name": "Puglia",
    "Hospital_Unit": "DIMICCOLI (BARLETTA)",
    "City": "BARLETTA",
    "District": "BARLETTA ANDRIA TRANI",
    "NUTS1_Code": "ITF",
    "NUTS2_Code": "ITF4",
    "County_Code": 16
  },
  {
    "_id": 214,
    "Lat": 41.33145071,
    "Long": 12.936185,
    "Area": "PUG",
    "Area_Name": "Puglia",
    "Hospital_Unit": "OSPEDALE DI SUMMA PERRINO",
    "City": "BRINDISI",
    "District": "BRINDISI",
    "NUTS1_Code": "ITF",
    "NUTS2_Code": "ITF4",
    "County_Code": 16
  },
  {
    "_id": 215,
    "Lat": 41.96615739,
    "Long": 7.46333484,
    "Area": "PUG",
    "Area_Name": "Puglia",
    "Hospital_Unit": "OSPEDALI RIUNITI",
    "City": "FOGGIA",
    "District": "FOGGIA",
    "NUTS1_Code": "ITF",
    "NUTS2_Code": "ITF4",
    "County_Code": 16
  },
  {
    "_id": 216,
    "Lat": 42.09237191,
    "Long": 9.32063474,
    "Area": "PUG",
    "Area_Name": "Puglia",
    "Hospital_Unit": "IRCCS CASA SOLLIEVO SOFFERENZA",
    "City": "SAN GIOVANNI ROTONDO",
    "District": "FOGGIA",
    "NUTS1_Code": "ITF",
    "NUTS2_Code": "ITF4",
    "County_Code": 16
  },
  {
    "_id": 217,
    "Lat": 41.04923574,
    "Long": 6.13423962,
    "Area": "PUG",
    "Area_Name": "Puglia",
    "Hospital_Unit": "OSPEDALE VITO FAZZI",
    "City": "LECCE",
    "District": "LECCE",
    "NUTS1_Code": "ITF",
    "NUTS2_Code": "ITF4",
    "County_Code": 16
  },
  {
    "_id": 218,
    "Lat": 40.2241797,
    "Long": 7.53645355,
    "Area": "PUG",
    "Area_Name": "Puglia",
    "Hospital_Unit": "IRCCS CARD. G. PANICO",
    "City": "TRICASE",
    "District": "LECCE",
    "NUTS1_Code": "ITF",
    "NUTS2_Code": "ITF4",
    "County_Code": 16
  },
  {
    "_id": 219,
    "Lat": 41.35502431,
    "Long": 11.52375578,
    "Area": "PUG",
    "Area_Name": "Puglia",
    "Hospital_Unit": "OSPEDALE SAN GIUSEPPE MOSCATI",
    "City": "STATTE",
    "District": "TARANTO",
    "NUTS1_Code": "ITF",
    "NUTS2_Code": "ITF4",
    "County_Code": 16
  },
  {
    "_id": 220,
    "Lat": 39.73288224,
    "Long": 10.07409922,
    "Area": "SAR",
    "Area_Name": "Sardegna",
    "Hospital_Unit": "A. BUSINCO - ARNAS G BROTZU",
    "City": "CAGLIARI",
    "District": "CAGLIARI",
    "NUTS1_Code": "ITG",
    "NUTS2_Code": "ITG2",
    "County_Code": 20
  },
  {
    "_id": 221,
    "Lat": 39.27475236,
    "Long": 7.15946556,
    "Area": "SAR",
    "Area_Name": "Sardegna",
    "Hospital_Unit": "PO BINAGHI",
    "City": "CAGLIARI",
    "District": "CAGLIARI",
    "NUTS1_Code": "ITG",
    "NUTS2_Code": "ITG2",
    "County_Code": 20
  },
  {
    "_id": 222,
    "Lat": 39.9028014,
    "Long": 12.32918409,
    "Area": "SAR",
    "Area_Name": "Sardegna",
    "Hospital_Unit": "SAN MICHELE - ARNAS G BROTZU",
    "City": "CAGLIARI",
    "District": "CAGLIARI",
    "NUTS1_Code": "ITG",
    "NUTS2_Code": "ITG2",
    "County_Code": 20
  },
  {
    "_id": 223,
    "Lat": 39.3780149,
    "Long": 6.55535306,
    "Area": "SAR",
    "Area_Name": "Sardegna",
    "Hospital_Unit": "AOU CAGLIARI POLICLINICO DUILIO CASULA",
    "City": "MONSERRATO",
    "District": "CAGLIARI",
    "NUTS1_Code": "ITG",
    "NUTS2_Code": "ITG2",
    "County_Code": 20
  },
  {
    "_id": 224,
    "Lat": 40.10763,
    "Long": 11.17348782,
    "Area": "SAR",
    "Area_Name": "Sardegna",
    "Hospital_Unit": "PO SIRAI",
    "City": "CARBONIA",
    "District": "CARBONIA IGLESIAS",
    "NUTS1_Code": "ITG",
    "NUTS2_Code": "ITG2",
    "County_Code": 20
  },
  {
    "_id": 225,
    "Lat": 40.43953225,
    "Long": 13.15026143,
    "Area": "SAR",
    "Area_Name": "Sardegna",
    "Hospital_Unit": "PO NS DI BONARIA",
    "City": "SAN GAVINO MONREALE",
    "District": "MEDIO CAMPIDANO",
    "NUTS1_Code": "ITG",
    "NUTS2_Code": "ITG2",
    "County_Code": 20
  },
  {
    "_id": 226,
    "Lat": 41.20015119,
    "Long": 11.10924222,
    "Area": "SAR",
    "Area_Name": "Sardegna",
    "Hospital_Unit": "PO SAN FRANCESCO",
    "City": "NUORO",
    "District": "NUORO",
    "NUTS1_Code": "ITG",
    "NUTS2_Code": "ITG2",
    "County_Code": 20
  },
  {
    "_id": 227,
    "Lat": 40.81639129,
    "Long": 8.74416564,
    "Area": "SAR",
    "Area_Name": "Sardegna",
    "Hospital_Unit": "PO NOSTRA SIGNORA DELLA MERCEDE",
    "City": "LANUSEI",
    "District": "OGLIASTRA",
    "NUTS1_Code": "ITG",
    "NUTS2_Code": "ITG2",
    "County_Code": 20
  },
  {
    "_id": 228,
    "Lat": 41.40987726,
    "Long": 11.46970697,
    "Area": "SAR",
    "Area_Name": "Sardegna",
    "Hospital_Unit": "PO GIOVANNI PAOLO II",
    "City": "OLBIA",
    "District": "OLBIA TEMPIO",
    "NUTS1_Code": "ITG",
    "NUTS2_Code": "ITG2",
    "County_Code": 20
  },
  {
    "_id": 229,
    "Lat": 40.56879524,
    "Long": 12.46634714,
    "Area": "SAR",
    "Area_Name": "Sardegna",
    "Hospital_Unit": "PO SAN MARTINO",
    "City": "ORISTANO",
    "District": "ORISTANO",
    "NUTS1_Code": "ITG",
    "NUTS2_Code": "ITG2",
    "County_Code": 20
  },
  {
    "_id": 230,
    "Lat": 41.43402655,
    "Long": 12.52179993,
    "Area": "SAR",
    "Area_Name": "Sardegna",
    "Hospital_Unit": "PO ANTONIO SEGNI",
    "City": "OZIERI",
    "District": "SASSARI",
    "NUTS1_Code": "ITG",
    "NUTS2_Code": "ITG2",
    "County_Code": 20
  },
  {
    "_id": 231,
    "Lat": 41.15037514,
    "Long": 9.18954865,
    "Area": "SAR",
    "Area_Name": "Sardegna",
    "Hospital_Unit": "AOU DI SASSARI",
    "City": "SASSARI",
    "District": "SASSARI",
    "NUTS1_Code": "ITG",
    "NUTS2_Code": "ITG2",
    "County_Code": 20
  },
  {
    "_id": 232,
    "Lat": 38.17586545,
    "Long": 7.45214125,
    "Area": "SIC",
    "Area_Name": "Sicilia",
    "Hospital_Unit": "P.O. \u201cS. GIOVANNI DI DIO\u201d DI AGRIGENTO",
    "City": "AGRIGENTO",
    "District": "AGRIGENTO",
    "NUTS1_Code": "ITG",
    "NUTS2_Code": "ITG1",
    "County_Code": 19
  },
  {
    "_id": 233,
    "Lat": 44.85161796,
    "Long": 6.56383213,
    "Area": "SIC",
    "Area_Name": "Sicilia",
    "Hospital_Unit": "P.O. \"BARONE LOMBARDO\" DI CANICATT\u00cc",
    "City": "CANICATTI\u00cc",
    "District": "AGRIGENTO",
    "NUTS1_Code": "ITG",
    "NUTS2_Code": "ITG1",
    "County_Code": 19
  },
  {
    "_id": 234,
    "Lat": 37.43560753,
    "Long": 12.31588029,
    "Area": "SIC",
    "Area_Name": "Sicilia",
    "Hospital_Unit": "P.O. \"SAN GIACOMO D'ALTOPASSO\" DI LICATA",
    "City": "LICATA",
    "District": "AGRIGENTO",
    "NUTS1_Code": "ITG",
    "NUTS2_Code": "ITG1",
    "County_Code": 19
  },
  {
    "_id": 235,
    "Lat": 37.7847004,
    "Long": 6.75742133,
    "Area": "SIC",
    "Area_Name": "Sicilia",
    "Hospital_Unit": "P.O. \"F.LLI PARLAPIANO\" DI RIBERA",
    "City": "RIBERA",
    "District": "AGRIGENTO",
    "NUTS1_Code": "ITG",
    "NUTS2_Code": "ITG1",
    "County_Code": 19
  },
  {
    "_id": 236,
    "Lat": 37.86629444,
    "Long": 7.4852867,
    "Area": "SIC",
    "Area_Name": "Sicilia",
    "Hospital_Unit": "P.O. \u201cOSPEDALI CIVILI RIUNITI\u201d DI SCIACCA",
    "City": "SCIACCA",
    "District": "AGRIGENTO",
    "NUTS1_Code": "ITG",
    "NUTS2_Code": "ITG1",
    "County_Code": 19
  },
  {
    "_id": 237,
    "Lat": 37.95229984,
    "Long": 11.8400318,
    "Area": "SIC",
    "Area_Name": "Sicilia",
    "Hospital_Unit": "P.O. \u201cS. ELIA\u201d DI CALTANISSETTA",
    "City": "CALTANISSETTA",
    "District": "CALTANISSETTA",
    "NUTS1_Code": "ITG",
    "NUTS2_Code": "ITG1",
    "County_Code": 19
  },
  {
    "_id": 238,
    "Lat": 37.97268535,
    "Long": 6.32936253,
    "Area": "SIC",
    "Area_Name": "Sicilia",
    "Hospital_Unit": "P.O. GRAVINA DI CALTAGIRONE ASP CT",
    "City": "CALTAGIRONE",
    "District": "CATANIA",
    "NUTS1_Code": "ITG",
    "NUTS2_Code": "ITG1",
    "County_Code": 19
  },
  {
    "_id": 239,
    "Lat": 38.21907915,
    "Long": 7.36731748,
    "Area": "SIC",
    "Area_Name": "Sicilia",
    "Hospital_Unit": "A.O. PER L'EMERGENZA \"CANNIZZARO\" \u2013 CATANIA",
    "City": "CATANIA",
    "District": "CATANIA",
    "NUTS1_Code": "ITG",
    "NUTS2_Code": "ITG1",
    "County_Code": 19
  },
  {
    "_id": 240,
    "Lat": 37.75367962,
    "Long": 9.84121156,
    "Area": "SIC",
    "Area_Name": "Sicilia",
    "Hospital_Unit": "A.O. UNIVERSITARIA POLICLINICO DI CATANIA \"S. MARCO\"",
    "City": "CATANIA",
    "District": "CATANIA",
    "NUTS1_Code": "ITG",
    "NUTS2_Code": "ITG1",
    "County_Code": 19
  },
  {
    "_id": 241,
    "Lat": 37.76747468,
    "Long": 10.60118168,
    "Area": "SIC",
    "Area_Name": "Sicilia",
    "Hospital_Unit": "NUOVO OSPEDALE GARIBALDI - NESIMA \u2013 OSPEDALE GARIBALDI \u2013 CENTRO",
    "City": "CATANIA",
    "District": "CATANIA",
    "NUTS1_Code": "ITG",
    "NUTS2_Code": "ITG1",
    "County_Code": 19
  },
  {
    "_id": 242,
    "Lat": 38.00696189,
    "Long": 13.86971468,
    "Area": "SIC",
    "Area_Name": "Sicilia",
    "Hospital_Unit": "P.O. GASAPARE RODOLICO",
    "City": "CATANIA",
    "District": "CATANIA",
    "NUTS1_Code": "ITG",
    "NUTS2_Code": "ITG1",
    "County_Code": 19
  },
  {
    "_id": 243,
    "Lat": 38.41274501,
    "Long": 11.14195064,
    "Area": "SIC",
    "Area_Name": "Sicilia",
    "Hospital_Unit": "P.O. \u201cUMBERTO I\u201d \u2013 ENNA",
    "City": "ENNA",
    "District": "ENNA",
    "NUTS1_Code": "ITG",
    "NUTS2_Code": "ITG1",
    "County_Code": 19
  },
  {
    "_id": 244,
    "Lat": 37.89413045,
    "Long": 6.84470526,
    "Area": "SIC",
    "Area_Name": "Sicilia",
    "Hospital_Unit": "IRCCS OASI MARIA SS.",
    "City": "TROINA",
    "District": "ENNA",
    "NUTS1_Code": "ITG",
    "NUTS2_Code": "ITG1",
    "County_Code": 19
  },
  {
    "_id": 245,
    "Lat": 39.12838363,
    "Long": 8.0018199,
    "Area": "SIC",
    "Area_Name": "Sicilia",
    "Hospital_Unit": "AUOP G. MARTINO",
    "City": "MESSINA",
    "District": "MESSINA",
    "NUTS1_Code": "ITG",
    "NUTS2_Code": "ITG1",
    "County_Code": 19
  },
  {
    "_id": 246,
    "Lat": 39.128849,
    "Long": 11.06220155,
    "Area": "SIC",
    "Area_Name": "Sicilia",
    "Hospital_Unit": "IRCCS CENTRO NEUROLESI 2 \u2013 BONINO PULEJO \u2013 P.O. CASAZZA",
    "City": "MESSINA",
    "District": "MESSINA",
    "NUTS1_Code": "ITG",
    "NUTS2_Code": "ITG1",
    "County_Code": 19
  },
  {
    "_id": 247,
    "Lat": 38.44845549,
    "Long": 10.68858457,
    "Area": "SIC",
    "Area_Name": "Sicilia",
    "Hospital_Unit": "IRCCS CENTRO NEUROLESI 2 \u2013 BONINO PULEJO \u2013 P.O. PIEMONTE",
    "City": "MESSINA",
    "District": "MESSINA",
    "NUTS1_Code": "ITG",
    "NUTS2_Code": "ITG1",
    "County_Code": 19
  },
  {
    "_id": 248,
    "Lat": 38.19960164,
    "Long": 13.2404207,
    "Area": "SIC",
    "Area_Name": "Sicilia",
    "Hospital_Unit": "P.O. PAPARDO MESSINA",
    "City": "MESSINA",
    "District": "MESSINA",
    "NUTS1_Code": "ITG",
    "NUTS2_Code": "ITG1",
    "County_Code": 19
  },
  {
    "_id": 249,
    "Lat": 38.26358717,
    "Long": 7.45500933,
    "Area": "SIC",
    "Area_Name": "Sicilia",
    "Hospital_Unit": "P.O. PATTI",
    "City": "PATTI",
    "District": "MESSINA",
    "NUTS1_Code": "ITG",
    "NUTS2_Code": "ITG1",
    "County_Code": 19
  },
  {
    "_id": 250,
    "Lat": 38.2925353,
    "Long": 11.86415152,
    "Area": "SIC",
    "Area_Name": "Sicilia",
    "Hospital_Unit": "P.O. TAORMINA",
    "City": "TAORMINA",
    "District": "MESSINA",
    "NUTS1_Code": "ITG",
    "NUTS2_Code": "ITG1",
    "County_Code": 19
  },
  {
    "_id": 251,
    "Lat": 42.48179531,
    "Long": 7.15584553,
    "Area": "SIC",
    "Area_Name": "Sicilia",
    "Hospital_Unit": "P.O. \u201cDEI BIANCHI\u201d \u2013 CORLEONE",
    "City": null,
    "District": "PALERMO",
    "NUTS1_Code": "ITG",
    "NUTS2_Code": "ITG1",
    "County_Code": 19
  },
  {
    "_id": 252,
    "Lat": 42.65561951,
    "Long": 12.50152199,
    "Area": "SIC",
    "Area_Name": "Sicilia",
    "Hospital_Unit": "P.O. \u201cG. F. INGRASSIA\u201d /VILLA DELLE GINESTRE",
    "City": null,
    "District": "PALERMO",
    "NUTS1_Code": "ITG",
    "NUTS2_Code": "ITG1",
    "County_Code": 19
  },
  {
    "_id": 253,
    "Lat": 37.9108367,
    "Long": 9.46642042,
    "Area": "SIC",
    "Area_Name": "Sicilia",
    "Hospital_Unit": "P.O. PARTINICO",
    "City": null,
    "District": "PALERMO",
    "NUTS1_Code": "ITG",
    "NUTS2_Code": "ITG1",
    "County_Code": 19
  },
  {
    "_id": 254,
    "Lat": 38.62073574,
    "Long": 9.88286817,
    "Area": "SIC",
    "Area_Name": "Sicilia",
    "Hospital_Unit": "A.O.O.R. VILLA SOFIA \u2013 CERVELLO P.O. CTO",
    "City": "PALERMO",
    "District": "PALERMO",
    "NUTS1_Code": "ITG",
    "NUTS2_Code": "ITG1",
    "County_Code": 19
  },
  {
    "_id": 255,
    "Lat": 38.47457573,
    "Long": 6.31146396,
    "Area": "SIC",
    "Area_Name": "Sicilia",
    "Hospital_Unit": "A.U.O.P. PALERMO",
    "City": "PALERMO",
    "District": "PALERMO",
    "NUTS1_Code": "ITG",
    "NUTS2_Code": "ITG1",
    "County_Code": 19
  },
  {
    "_id": 256,
    "Lat": 38.94099889,
    "Long": 6.42653869,
    "Area": "SIC",
    "Area_Name": "Sicilia",
    "Hospital_Unit": "ISMETT",
    "City": "PALERMO",
    "District": "PALERMO",
    "NUTS1_Code": "ITG",
    "NUTS2_Code": "ITG1",
    "County_Code": 19
  },
  {
    "_id": 257,
    "Lat": 38.15319639,
    "Long": 10.59752911,
    "Area": "SIC",
    "Area_Name": "Sicilia",
    "Hospital_Unit": "P.O. ARNAS CIVICO PA",
    "City": "PALERMO",
    "District": "PALERMO",
    "NUTS1_Code": "ITG",
    "NUTS2_Code": "ITG1",
    "County_Code": 19
  },
  {
    "_id": 258,
    "Lat": 38.73177789,
    "Long": 8.17507831,
    "Area": "SIC",
    "Area_Name": "Sicilia",
    "Hospital_Unit": "P.O. MADONNA DELL\u2019ALTO \u2013 PETRALIA SOTTANA",
    "City": "PETRALIA SOTTANA",
    "District": "PALERMO",
    "NUTS1_Code": "ITG",
    "NUTS2_Code": "ITG1",
    "County_Code": 19
  },
  {
    "_id": 259,
    "Lat": 38.35104762,
    "Long": 13.94194059,
    "Area": "SIC",
    "Area_Name": "Sicilia",
    "Hospital_Unit": "P.O. S.CIMINO TERMINI IMERESE",
    "City": "TERMINI IMERESE",
    "District": "PALERMO",
    "NUTS1_Code": "ITG",
    "NUTS2_Code": "ITG1",
    "County_Code": 19
  },
  {
    "_id": 260,
    "Lat": 37.344377,
    "Long": 8.85246979,
    "Area": "SIC",
    "Area_Name": "Sicilia",
    "Hospital_Unit": "DEA I LIVELLO RAGUSA (SIMT)\\GIOVANNI PAOLO II",
    "City": "RAGUSA",
    "District": "RAGUSA",
    "NUTS1_Code": "ITG",
    "NUTS2_Code": "ITG1",
    "County_Code": 19
  },
  {
    "_id": 261,
    "Lat": 36.99127558,
    "Long": 11.82021191,
    "Area": "SIC",
    "Area_Name": "Sicilia",
    "Hospital_Unit": "P.O. \u201cBUSACCA\u201d DI SCICLI",
    "City": "RAGUSA",
    "District": "RAGUSA",
    "NUTS1_Code": "ITG",
    "NUTS2_Code": "ITG1",
    "County_Code": 19
  },
  {
    "_id": 262,
    "Lat": 36.99323721,
    "Long": 10.34538088,
    "Area": "SIC",
    "Area_Name": "Sicilia",
    "Hospital_Unit": "P.O. \u201cGUZZARDI\u201d DI VITTORIA",
    "City": "RAGUSA",
    "District": "RAGUSA",
    "NUTS1_Code": "ITG",
    "NUTS2_Code": "ITG1",
    "County_Code": 19
  },
  {
    "_id": 263,
    "Lat": 37.84238711,
    "Long": 9.03789013,
    "Area": "SIC",
    "Area_Name": "Sicilia",
    "Hospital_Unit": "P.O. \u201cMAGGIORE\u201d DI MODICA",
    "City": "RAGUSA",
    "District": "RAGUSA",
    "NUTS1_Code": "ITG",
    "NUTS2_Code": "ITG1",
    "County_Code": 19
  },
  {
    "_id": 264,
    "Lat": 37.76401001,
    "Long": 9.52546676,
    "Area": "SIC",
    "Area_Name": "Sicilia",
    "Hospital_Unit": "P.O. \u201cR. MARGHERITA\u201d DI COMISO",
    "City": "RAGUSA",
    "District": "RAGUSA",
    "NUTS1_Code": "ITG",
    "NUTS2_Code": "ITG1",
    "County_Code": 19
  },
  {
    "_id": 265,
    "Lat": 37.59805386,
    "Long": 10.5189465,
    "Area": "SIC",
    "Area_Name": "Sicilia",
    "Hospital_Unit": "P.O. \u201cUMBERTO I\u201d \u2013 SIRACUSA",
    "City": "SIRACUSA",
    "District": "SIRACUSA",
    "NUTS1_Code": "ITG",
    "NUTS2_Code": "ITG1",
    "County_Code": 19
  },
  {
    "_id": 266,
    "Lat": 38.98825317,
    "Long": 13.71030544,
    "Area": "SIC",
    "Area_Name": "Sicilia",
    "Hospital_Unit": "\u201cS. ANTONIO ABATE\u201d DI TRAPANI",
    "City": "CASA SANTA",
    "District": "TRAPANI",
    "NUTS1_Code": "ITG",
    "NUTS2_Code": "ITG1",
    "County_Code": 19
  },
  {
    "_id": 267,
    "Lat": 38.44741531,
    "Long": 11.75673236,
    "Area": "SIC",
    "Area_Name": "Sicilia",
    "Hospital_Unit": "P.O. \"ABELE AJELLO\" - MAZARA DEL VALLO",
    "City": "MAZARA DEL VALLO",
    "District": "TRAPANI",
    "NUTS1_Code": "ITG",
    "NUTS2_Code": "ITG1",
    "County_Code": 19
  },
  {
    "_id": 268,
    "Lat": 44.23828738,
    "Long": 8.11231909,
    "Area": "TOS",
    "Area_Name": "Toscana",
    "Hospital_Unit": "OSPEDALE S. DONATO",
    "City": "AREZZO",
    "District": "AREZZO",
    "NUTS1_Code": "ITI",
    "NUTS2_Code": "ITI1",
    "County_Code": 9
  },
  {
    "_id": 269,
    "Lat": 43.88569615,
    "Long": 6.84523141,
    "Area": "TOS",
    "Area_Name": "Toscana",
    "Hospital_Unit": "OSPEDALE SAN GIUSEPPE",
    "City": "EMPOLI",
    "District": "FIRENZE",
    "NUTS1_Code": "ITI",
    "NUTS2_Code": "ITI1",
    "County_Code": 9
  },
  {
    "_id": 270,
    "Lat": 39.37536258,
    "Long": 6.84607742,
    "Area": "TOS",
    "Area_Name": "Toscana",
    "Hospital_Unit": "AOU CAREGGI",
    "City": "FIRENZE",
    "District": "FIRENZE",
    "NUTS1_Code": "ITI",
    "NUTS2_Code": "ITI1",
    "County_Code": 9
  },
  {
    "_id": 271,
    "Lat": 38.32860887,
    "Long": 6.01891328,
    "Area": "TOS",
    "Area_Name": "Toscana",
    "Hospital_Unit": "OSPEDALE NUOVO S.GIOVANNI DI DIO",
    "City": "FIRENZE",
    "District": "FIRENZE",
    "NUTS1_Code": "ITI",
    "NUTS2_Code": "ITI1",
    "County_Code": 9
  },
  {
    "_id": 272,
    "Lat": 43.07954817,
    "Long": 10.71542105,
    "Area": "TOS",
    "Area_Name": "Toscana",
    "Hospital_Unit": "OSPEDALE DELLA MISERICORDIA",
    "City": "GROSSETO",
    "District": "GROSSETO",
    "NUTS1_Code": "ITI",
    "NUTS2_Code": "ITI1",
    "County_Code": 9
  },
  {
    "_id": 273,
    "Lat": 44.01043955,
    "Long": 12.18988287,
    "Area": "TOS",
    "Area_Name": "Toscana",
    "Hospital_Unit": "OSPEDALE LIVORNO",
    "City": "LIVORNO",
    "District": "LIVORNO",
    "NUTS1_Code": "ITI",
    "NUTS2_Code": "ITI1",
    "County_Code": 9
  },
  {
    "_id": 274,
    "Lat": 43.98389883,
    "Long": 13.29751763,
    "Area": "TOS",
    "Area_Name": "Toscana",
    "Hospital_Unit": "PRESIDIO OSPEDALIERO SAN LUCA",
    "City": "LUCCA",
    "District": "LUCCA",
    "NUTS1_Code": "ITI",
    "NUTS2_Code": "ITI1",
    "County_Code": 9
  },
  {
    "_id": 275,
    "Lat": 44.31578345,
    "Long": 6.31646595,
    "Area": "TOS",
    "Area_Name": "Toscana",
    "Hospital_Unit": "OSPEDALE  DELLE APUANE",
    "City": "MASSA",
    "District": "MASSA-CARRARA",
    "NUTS1_Code": "ITI",
    "NUTS2_Code": "ITI1",
    "County_Code": 9
  },
  {
    "_id": 276,
    "Lat": 43.82071568,
    "Long": 12.30783974,
    "Area": "TOS",
    "Area_Name": "Toscana",
    "Hospital_Unit": "AOU PISANA",
    "City": "PISA",
    "District": "PISA",
    "NUTS1_Code": "ITI",
    "NUTS2_Code": "ITI1",
    "County_Code": 9
  },
  {
    "_id": 277,
    "Lat": 44.326593,
    "Long": 9.18038926,
    "Area": "TOS",
    "Area_Name": "Toscana",
    "Hospital_Unit": "OSPEDALE SAN IACOPO",
    "City": "PISTOIA",
    "District": "PISTOIA",
    "NUTS1_Code": "ITI",
    "NUTS2_Code": "ITI1",
    "County_Code": 9
  },
  {
    "_id": 278,
    "Lat": 44.79593924,
    "Long": 12.57431673,
    "Area": "TOS",
    "Area_Name": "Toscana",
    "Hospital_Unit": "OSPEDALE SANTO STEFANO",
    "City": "PRATO",
    "District": "PRATO",
    "NUTS1_Code": "ITI",
    "NUTS2_Code": "ITI1",
    "County_Code": 9
  },
  {
    "_id": 279,
    "Lat": 43.57208123,
    "Long": 11.44970047,
    "Area": "TOS",
    "Area_Name": "Toscana",
    "Hospital_Unit": "AOU SENESE",
    "City": "SIENA",
    "District": "SIENA",
    "NUTS1_Code": "ITI",
    "NUTS2_Code": "ITI1",
    "County_Code": 9
  },
  {
    "_id": 280,
    "Lat": 43.48216406,
    "Long": 12.50357995,
    "Area": "UMB",
    "Area_Name": "Umbria",
    "Hospital_Unit": "OSPEDALE DI CITTA' DI CASTELLO",
    "City": "CITT\u00c0 DI CASTELLO",
    "District": "PERUGIA",
    "NUTS1_Code": "ITI",
    "NUTS2_Code": "ITI2",
    "County_Code": 10
  },
  {
    "_id": 281,
    "Lat": 43.84461004,
    "Long": 9.05165086,
    "Area": "UMB",
    "Area_Name": "Umbria",
    "Hospital_Unit": "OSPEDALE DI FOLIGNO",
    "City": "FOLIGNO",
    "District": "PERUGIA",
    "NUTS1_Code": "ITI",
    "NUTS2_Code": "ITI2",
    "County_Code": 10
  },
  {
    "_id": 282,
    "Lat": 43.34127799,
    "Long": 8.28490243,
    "Area": "UMB",
    "Area_Name": "Umbria",
    "Hospital_Unit": "AZIENDA OSPEDALIERA DI PERUGIA",
    "City": "PERUGIA",
    "District": "PERUGIA",
    "NUTS1_Code": "ITI",
    "NUTS2_Code": "ITI2",
    "County_Code": 10
  },
  {
    "_id": 283,
    "Lat": 42.63826173,
    "Long": 13.71334311,
    "Area": "UMB",
    "Area_Name": "Umbria",
    "Hospital_Unit": "AZIENDA OSPEDALIERA DI TERNI",
    "City": "TERNI",
    "District": "TERNI",
    "NUTS1_Code": "ITI",
    "NUTS2_Code": "ITI2",
    "County_Code": 10
  },
  {
    "_id": 284,
    "Lat": 46.32867304,
    "Long": 11.01022879,
    "Area": "VDA",
    "Area_Name": "Valle d'Aosta / Vall\u00e9e d'Aoste",
    "Hospital_Unit": "OSPEDALE UMBERTO PARINI",
    "City": "AOSTA",
    "District": "AOSTA",
    "NUTS1_Code": "ITC",
    "NUTS2_Code": "ITC2",
    "County_Code": 2
  },
  {
    "_id": 285,
    "Lat": 45.98017174,
    "Long": 9.03516779,
    "Area": "VDA",
    "Area_Name": "Valle d'Aosta / Vall\u00e9e d'Aoste",
    "Hospital_Unit": "OSPEDALE UMBERTO PARINI - HUB",
    "City": "AOSTA",
    "District": "AOSTA",
    "NUTS1_Code": "ITC",
    "NUTS2_Code": "ITC2",
    "County_Code": 2
  },
  {
    "_id": 286,
    "Lat": 46.33835084,
    "Long": 13.40776333,
    "Area": "VEN",
    "Area_Name": "Veneto",
    "Hospital_Unit": "OSPEDALE S. MARTINO BELLUNO",
    "City": "BELLUNO",
    "District": "BELLUNO",
    "NUTS1_Code": "ITH",
    "NUTS2_Code": "ITH3",
    "County_Code": 5
  },
  {
    "_id": 287,
    "Lat": 46.296511,
    "Long": 8.41012502,
    "Area": "VEN",
    "Area_Name": "Veneto",
    "Hospital_Unit": "AZIENDA OSPEDALE UNIVERSITA' PADOVA",
    "City": "PADOVA",
    "District": "PADOVA",
    "NUTS1_Code": "ITH",
    "NUTS2_Code": "ITH3",
    "County_Code": 5
  },
  {
    "_id": 288,
    "Lat": 45.87063604,
    "Long": 10.07223473,
    "Area": "VEN",
    "Area_Name": "Veneto",
    "Hospital_Unit": "OSPEDALE \"SANTA MARIA DELLA MISERICORDIA\"",
    "City": "ROVIGO",
    "District": "ROVIGO",
    "NUTS1_Code": "ITH",
    "NUTS2_Code": "ITH3",
    "County_Code": 5
  },
  {
    "_id": 289,
    "Lat": 46.77794184,
    "Long": 8.6413952,
    "Area": "VEN",
    "Area_Name": "Veneto",
    "Hospital_Unit": "OSPEDALE DI VITTORIO VENETO",
    "City": "VITTORIO VENETO",
    "District": "TREVISO",
    "NUTS1_Code": "ITH",
    "NUTS2_Code": "ITH3",
    "County_Code": 5
  },
  {
    "_id": 290,
    "Lat": 44.02454665,
    "Long": 9.27464457,
    "Area": "VEN",
    "Area_Name": "Veneto",
    "Hospital_Unit": "OSPEDALE DELL'ANGELO",
    "City": "VENEZIA MESTRE",
    "District": "VENEZIA",
    "NUTS1_Code": "ITH",
    "NUTS2_Code": "ITH3",
    "County_Code": 5
  },
  {
    "_id": 291,
    "Lat": 45.51307169,
    "Long": 13.54930738,
    "Area": "VEN",
    "Area_Name": "Veneto",
    "Hospital_Unit": "AZIENDA OSPEDALIERA UNIVERSITARIA INTEGRATA DI VERONA",
    "City": "VERONA",
    "District": "VERONA",
    "NUTS1_Code": "ITH",
    "NUTS2_Code": "ITH3",
    "County_Code": 5
  },
  {
    "_id": 292,
    "Lat": 45.8844017,
    "Long": 10.89425732,
    "Area": "VEN",
    "Area_Name": "Veneto",
    "Hospital_Unit": "OSPEDALE DI VICENZA",
    "City": "VICENZA",
    "District": "VICENZA",
    "NUTS1_Code": "ITH",
    "NUTS2_Code": "ITH3",
    "County_Code": 5
  }
]